$SDHDG,192.7,,,8.2,E*32
$SDHDG,193.5,,,8.2,E*31
$SDHDG,192.9,,,8.2,E*3C
$WIMWV,206.0,R,3.6,N,A*22
$GPZDA,100759,13,09,14,-03,00*62
$GPGSA,A,3,02,05,10,13,16,21,23,25,29,31,,,1.90,0.80,1.70*0B
$SDHDG,193.0,,,8.2,E*34
$SDHDG,193.3,,,8.2,E*37
$WIMWD,37.3,T,29.0,M,5.8,N,3.0,M*58
$GPGSV,3,2,11,16,21,306,34,21,35,202,32,23,07,323,36,25,25,149,41*72
$GPGSV,3,1,11,02,12,051,27,05,32,073,34,10,11,022,33,13,13,347,28*77
$SDVLW,,N,0.5,N,1067.6,N,1062.8,N*7A
$GPGLL,6010.4372,N,02500.6575,E,100759,A,A*4E
$SDHDG,193.5,,,8.2,E*31
$GPGGA,100758,6010.4379,N,02500.6583,E,1,10,0.80,0,M,19.5,M,,*62
$SDHDG,193.5,,,8.2,E*31
$SDVHW,201.6,T,193.4,M,2.3,N,4.4,K*49
$GPGSV,3,3,11,29,74,107,37,31,29,237,41,09,00,000,*40
$SDHDG,193.4,,,8.2,E*30
$WIMWV,195.7,T,5.8,N,A*22
$SDHDG,193.5,,,8.2,E*31
$GPGLL,6010.4379,N,02500.6583,E,100758,A,A*4D
$GPVTG,213.0,T,204.8,M,2.7,N,5.0,K,A*2D
$WIMWV,197.0,T,6.2,N,A*2E
$SDDPT,13.1,,*66
$GPRMB,,,,,,,,,,,,,,N*04
$GPGGA,100759,6010.4372,N,02500.6575,E,1,10,0.80,0,M,19.5,M,,*61
$SDDPT,13.2,,*65
$GPXTE,,,,,N,N*5E
$GPRMB,,,,,,,,,,,,,,N*04
$GPRMC,100758,A,6010.4378,N,02500.6581,E,2.7,213.0,130914,8.2,E,A*13
$WIMWV,207.0,R,4.0,N,A*22
$SDHDG,193.4,,,8.2,E*30
$SDHDG,192.8,,,8.2,E*3D
$GPZDA,100758,13,09,14,-03,00*63
$SDHDG,193.3,,,8.2,E*37
$WIMWD,38.6,T,30.3,M,6.2,N,3.2,M*52
$SDHDG,193.1,,,8.2,E*35
$SDDBT,42.9,f,13.1,M,7.1,F*0C
$GPRMC,100759,A,6010.4371,N,02500.6573,E,2.7,213.0,130914,8.2,E,A*16
$SDHDG,193.5,,,8.2,E*31
$SDHDG,193.4,,,8.2,E*30
$GPGSA,A,3,02,05,10,13,16,21,23,25,29,31,,,1.90,0.80,1.70*0B
$SDVLW,,N,0.5,N,1067.6,N,1062.8,N*7A
$GPGSV,3,1,11,02,12,051,30,05,32,073,34,10,11,022,33,13,13,347,27*7E
$GPVTG,213.0,T,204.8,M,2.7,N,5.0,K,A*2D
$SDDBT,43.3,f,13.2,M,7.2,F*07
$SDMTW,,C*1A
$SDMTW,,C*1A
$SDHDG,193.2,,,8.2,E*36
$SDVHW,201.4,T,193.2,M,2.3,N,4.4,K*4D
$SDHDG,193.4,,,8.2,E*30
$GPGSV,3,2,11,16,21,306,34,21,35,202,33,23,07,323,35,25,25,149,40*71
$GPXTE,,,,,N,N*5E
$GPGSV,3,3,11,29,74,107,37,31,29,237,41,09,00,000,*40
$WIMWV,198.7,T,6.8,N,A*2C
$SDHDG,192.4,,,8.2,E*31
$SDVLW,,N,0.5,N,1067.6,N,1062.8,N*7A
$WIMWV,198.4,T,6.3,N,A*24
$SDHDG,192.7,,,8.2,E*32
$WIMWV,209.0,R,4.1,N,A*2D
$SDHDG,192.8,,,8.2,E*3D
$SDHDG,192.3,,,8.2,E*36
$SDHDG,192.4,,,8.2,E*31
$GPGSV,3,1,11,02,12,051,28,05,32,073,34,10,11,022,33,13,13,347,29*79
$SDHDG,192.3,,,8.2,E*36
$SDDPT,13.2,,*65
$SDVLW,,N,0.5,N,1067.6,N,1062.8,N*7A
$SDHDG,192.5,,,8.2,E*30
$SDDBT,43.3,f,13.2,M,7.2,F*07
$GPRMB,,,,,,,,,,,,,,N*04
$GPGSA,A,3,02,05,10,13,16,21,23,25,29,31,,,1.90,0.80,1.70*0B
$SDHDG,193.2,,,8.2,E*36
$SDHDG,192.6,,,8.2,E*33
$WIMWD,39.0,T,30.8,M,6.3,N,3.2,M*5F
$GPXTE,,,,,N,N*5E
$SDVHW,200.5,T,192.3,M,2.3,N,4.4,K*4D
$GPZDA,100801,13,09,14,-03,00*60
$SDMTW,,C*1A
$SDHDG,192.4,,,8.2,E*31
$SDHDG,193.1,,,8.2,E*35
$SDVHW,200.9,T,192.7,M,2.5,N,4.6,K*41
$GPGSV,3,2,11,16,21,306,33,21,35,202,33,23,07,323,35,25,25,149,40*76
$GPGLL,6010.4366,N,02500.6566,E,100800,A,A*4A
$GPGLL,6010.4360,N,02500.6557,E,100801,A,A*4F
$SDHDG,192.3,,,8.2,E*36
$GPGGA,100800,6010.4366,N,02500.6566,E,1,10,0.80,0,M,19.5,M,,*65
$SDHDG,192.3,,,8.2,E*36
$SDHDG,192.4,,,8.2,E*31
$WIMWV,209.0,R,4.5,N,A*29
$SDHDG,192.5,,,8.2,E*30
$SDMTW,,C*1A
$GPGSV,3,1,11,02,12,051,27,05,32,073,34,10,11,022,32,13,13,347,28*76
$SDHDG,192.3,,,8.2,E*36
$GPGSV,3,3,11,29,73,106,37,31,29,237,41,09,00,000,*46
$SDHDG,192.7,,,8.2,E*32
$GPGSV,3,3,11,29,73,106,37,31,29,237,41,09,00,000,*46
$GPGGA,100801,6010.4360,N,02500.6557,E,1,10,0.80,0,M,19.5,M,,*60
$SDDBT,43.3,f,13.2,M,7.2,F*07
$SDHDG,192.9,,,8.2,E*3C
$SDHDG,192.3,,,8.2,E*36
$GPXTE,,,,,N,N*5E
$GPVTG,215.0,T,206.8,M,2.8,N,5.2,K,A*24
$SDHDG,192.3,,,8.2,E*36
$GPVTG,217.0,T,208.8,M,2.8,N,5.2,K,A*28
$GPRMC,100800,A,6010.4365,N,02500.6564,E,2.8,217.0,130914,8.2,E,A*1D
$SDDPT,13.2,,*65
$GPGSA,A,3,02,05,10,13,16,21,23,25,29,31,,,1.90,0.80,1.70*0B
$GPRMB,,,,,,,,,,,,,,N*04
$WIMWD,39.6,T,31.4,M,6.8,N,3.5,M*58
$GPRMC,100801,A,6010.4359,N,02500.6556,E,2.8,215.0,130914,8.2,E,A*10
$GPZDA,100800,13,09,14,-03,00*61
$GPGSV,3,2,11,16,21,306,34,21,35,202,34,23,07,323,36,25,25,149,41*74
$GPVTG,213.0,T,204.8,M,2.6,N,4.8,K,A*25
$SDHDG,193.6,,,8.2,E*32
$SDHDG,192.8,,,8.2,E*3D
$SDVLW,,N,0.5,N,1067.6,N,1062.8,N*7A
$GPGSV,3,3,11,29,73,106,39,31,29,237,41,09,00,000,*48
$GPRMB,,,,,,,,,,,,,,N*04
$GPRMC,100802,A,6010.4353,N,02500.6548,E,2.8,214.0,130914,8.2,E,A*17
$GPRMB,,,,,,,,,,,,,,N*04
$SDDBT,43.3,f,13.2,M,7.2,F*07
$GPGGA,100802,6010.4354,N,02500.6550,E,1,10,0.80,-1,M,19.5,M,,*4F
$GPRMC,100803,A,6010.4346,N,02500.6540,E,2.6,213.0,130914,8.2,E,A*13
$GPGSA,A,3,02,05,10,13,16,21,23,25,29,31,,,1.90,0.80,1.70*0B
$GPXTE,,,,,N,N*5E
$GPGSV,3,3,11,29,73,106,38,31,29,237,41,09,00,000,*49
$WIMWD,39.6,T,31.4,M,6.8,N,3.5,M*58
$SDHDG,193.9,,,8.2,E*3D
$GPZDA,100803,13,09,14,-03,00*62
$SDHDG,193.7,,,8.2,E*33
$GPGSA,A,3,02,05,10,13,16,21,23,25,29,31,,,1.90,0.80,1.70*0B
$GPGSV,3,1,11,02,12,051,29,05,32,073,34,10,11,022,31,13,13,347,28*7B
$GPGLL,6010.4348,N,02500.6542,E,100803,A,A*43
$WIMWV,199.5,T,6.9,N,A*2E
$GPGSV,3,2,11,16,21,306,34,21,35,202,33,23,07,323,36,25,25,149,41*73
$GPGSV,3,2,11,16,21,306,34,21,35,202,33,23,07,323,36,25,25,149,42*70
$GPZDA,100802,13,09,14,-03,00*63
$SDMTW,,C*1A
$SDVHW,202.1,T,193.9,M,2.5,N,4.6,K*44
$GPGLL,6010.4354,N,02500.6550,E,100802,A,A*4C
$SDDPT,13.2,,*65
$SDHDG,193.3,,,8.2,E*37
$WIMWV,208.0,R,4.5,N,A*28
$SDHDG,193.8,,,8.2,E*3C
$SDHDG,193.5,,,8.2,E*31
$SDHDG,193.7,,,8.2,E*33
$WIMWV,210.0,R,4.6,N,A*22
$SDVLW,,N,0.5,N,1067.6,N,1062.8,N*7A
$SDHDG,193.6,,,8.2,E*32
$GPGGA,100803,6010.4348,N,02500.6542,E,1,10,0.80,-1,M,19.5,M,,*40
$SDHDG,192.7,,,8.2,E*32
$SDHDG,193.2,,,8.2,E*36
$WIMWV,198.1,T,6.8,N,A*2A
$SDHDG,193.0,,,8.2,E*34
$SDHDG,193.1,,,8.2,E*35
$SDHDG,193.8,,,8.2,E*3C
$SDVHW,201.6,T,193.4,M,2.5,N,4.6,K*4D
$SDHDG,192.7,,,8.2,E*32
$WIMWD,41.6,T,33.4,M,6.9,N,3.5,M*54
$SDHDG,193.4,,,8.2,E*30
$SDHDG,193.5,,,8.2,E*31
$SDHDG,192.9,,,8.2,E*3C
$SDDBT,43.3,f,13.2,M,7.2,F*07
$SDHDG,193.1,,,8.2,E*35
$SDDPT,13.2,,*65
$SDMTW,,C*1A
$SDHDG,193.4,,,8.2,E*30
$GPXTE,,,,,N,N*5E
$GPVTG,214.0,T,205.8,M,2.8,N,5.2,K,A*26
$GPGSV,3,1,11,02,12,051,28,05,32,073,34,10,11,022,32,13,13,347,28*79
$SDHDG,194.4,,,8.2,E*37
$SDHDG,194.1,,,8.2,E*32
$SDHDG,194.1,,,8.2,E*32
$SDHDG,194.3,,,8.2,E*30
$SDHDG,194.2,,,8.2,E*31
$SDHDG,194.4,,,8.2,E*37
$GPGSV,3,3,11,29,73,106,38,31,29,236,42,09,00,000,*4B
$SDHDG,193.9,,,8.2,E*3D
$SDHDG,194.0,,,8.2,E*33
$GPXTE,,,,,N,N*5E
$GPRMC,100804,A,6010.4340,N,02500.6533,E,2.7,213.0,130914,8.2,E,A*17
$GPVTG,213.0,T,204.8,M,2.7,N,5.0,K,A*2D
$GPZDA,100804,13,09,14,-03,00*65
$SDMTW,,C*1A
$GPGLL,6010.4341,N,02500.6534,E,100804,A,A*4C
$GPGGA,100804,6010.4341,N,02500.6534,E,1,10,0.80,-1,M,19.5,M,,*4F
$SDHDG,194.1,,,8.2,E*32
$GPGSA,A,3,02,05,10,13,16,21,23,25,29,31,,,1.90,0.80,1.70*0B
$GPRMB,,,,,,,,,,,,,,N*04
$GPGSV,3,2,11,16,21,306,34,21,35,202,33,23,07,323,36,25,25,149,41*73
$SDDBT,43.3,f,13.2,M,7.2,F*07
$SDHDG,194.0,,,8.2,E*33
$SDVLW,,N,0.5,N,1067.6,N,1062.8,N*7A
$SDHDG,194.2,,,8.2,E*31
$GPGSV,3,1,11,02,12,051,30,05,32,073,34,10,11,022,31,13,13,347,28*73
$SDHDG,194.1,,,8.2,E*32
$SDDPT,13.2,,*65
$SDVHW,202.5,T,194.2,M,2.5,N,4.6,K*4C
$WIMWV,201.1,T,7.1,N,A*21
$WIMWV,212.0,R,4.8,N,A*2E
$WIMWD,43.6,T,35.4,M,7.1,N,3.6,M*5A
$SDHDG,194.3,,,8.2,E*30
$SDHDG,194.5,,,8.2,E*36
$GPGGA,100806,6010.4329,N,02500.6519,E,1,10,0.80,-1,M,19.5,M,,*4C
$GPZDA,100805,13,09,14,-03,00*64
$SDMTW,,C*1A
$GPGGA,100805,6010.4335,N,02500.6527,E,1,10,0.80,-1,M,19.5,M,,*4F
$SDHDG,194.5,,,8.2,E*36
$GPRMC,100806,A,6010.4328,N,02500.6518,E,2.7,215.0,130914,8.2,E,A*14
$SDHDG,194.5,,,8.2,E*36
$SDHDG,194.5,,,8.2,E*36
$SDHDG,194.3,,,8.2,E*30
$GPVTG,215.0,T,206.8,M,2.7,N,5.0,K,A*29
$SDVHW,202.7,T,194.5,M,2.5,N,4.6,K*49
$SDVHW,202.4,T,194.2,M,2.3,N,4.4,K*49
$GPGSV,3,2,11,16,21,306,33,21,35,202,32,23,07,323,35,25,25,149,41*76
$SDDPT,13.2,,*65
$SDHDG,194.4,,,8.2,E*37
$GPRMB,,,,,,,,,,,,,,N*04
$GPRMC,100805,A,6010.4333,N,02500.6526,E,2.7,213.0,130914,8.2,E,A*16
$GPXTE,,,,,N,N*5E
$SDHDG,194.1,,,8.2,E*32
$WIMWV,201.4,T,7.2,N,A*27
$SDHDG,194.3,,,8.2,E*30
$SDVLW,,N,0.5,N,1067.6,N,1062.8,N*7A
$SDHDG,194.5,,,8.2,E*36
$WIMWV,201.8,T,7.1,N,A*28
$GPGLL,6010.4335,N,02500.6527,E,100805,A,A*4C
$SDHDG,194.5,,,8.2,E*36
$GPZDA,100806,13,09,14,-03,00*67
$SDHDG,194.3,,,8.2,E*30
$GPGSV,3,2,11,16,21,306,34,21,35,202,33,23,07,323,36,25,25,149,41*73
$WIMWD,44.3,T,36.0,M,7.1,N,3.7,M*5E
$GPGSV,3,1,11,02,12,051,30,05,32,073,34,10,11,022,31,13,13,347,28*73
$GPGSA,A,3,02,05,10,13,16,21,23,25,29,31,,,1.90,0.80,1.70*0B
$GPRMB,,,,,,,,,,,,,,N*04
$SDHDG,194.4,,,8.2,E*37
$WIMWV,212.0,R,5.0,N,A*27
$SDDBT,43.3,f,13.2,M,7.2,F*07
$GPGSV,3,3,11,29,73,106,38,31,29,236,42,09,00,000,*4B
$GPGSA,A,3,02,05,10,13,16,21,23,25,29,31,,,1.90,0.80,1.70*0B
$GPVTG,213.0,T,204.8,M,2.7,N,5.0,K,A*2D
$WIMWD,44.2,T,36.0,M,7.2,N,3.7,M*5C
$SDHDG,194.2,,,8.2,E*31
$GPGSV,3,3,11,29,73,106,36,31,29,236,42,09,00,000,*45
$SDMTW,,C*1A
$GPGLL,6010.4329,N,02500.6519,E,100806,A,A*4F
$SDDPT,13.2,,*65
$SDHDG,194.3,,,8.2,E*30
$SDHDG,194.4,,,8.2,E*37
$GPGSV,3,1,11,02,12,051,28,05,32,073,34,10,11,022,31,13,13,347,29*7B
$SDDBT,43.3,f,13.2,M,7.2,F*07
$GPXTE,,,,,N,N*5E
$SDHDG,194.3,,,8.2,E*30
$WIMWV,212.0,R,5.0,N,A*27
$SDHDG,194.5,,,8.2,E*36
$SDVLW,,N,0.5,N,1067.6,N,1062.8,N*7A
$SDMTW,,C*1A
$SDHDG,193.7,,,8.2,E*33
$SDHDG,193.5,,,8.2,E*31
$SDHDG,193.6,,,8.2,E*32
$GPGLL,6010.4322,N,02500.6510,E,100807,A,A*4C
$GPGSV,3,3,11,29,73,106,35,31,29,236,42,09,00,000,*46
$SDHDG,193.5,,,8.2,E*31
$SDHDG,193.5,,,8.2,E*31
$GPGSV,3,3,11,29,73,106,34,31,29,236,42,09,00,000,*47
$GPRMB,,,,,,,,,,,,,,N*04
$WIMWD,43.7,T,35.5,M,7.1,N,3.7,M*5B
$SDDPT,13.2,,*65
$SDHDG,193.7,,,8.2,E*33
$SDVLW,,N,0.5,N,1067.6,N,1062.8,N*7A
$SDDBT,43.3,f,13.2,M,7.2,F*07
$GPGLL,6010.4316,N,02500.6502,E,100808,A,A*47
$GPGSA,A,3,02,05,10,13,16,21,23,25,29,31,,,1.90,0.80,1.70*0B
$GPRMC,100808,A,6010.4316,N,02500.6502,E,2.7,216.0,130914,8.2,E,A*1F
$GPXTE,,,,,N,N*5E
$SDHDG,194.0,,,8.2,E*33
$GPGGA,100808,6010.4316,N,02500.6502,E,1,10,0.80,-1,M,19.5,M,,*44
$GPGSV,3,2,11,16,21,306,34,21,35,202,33,23,07,323,34,25,25,149,40*70
$GPVTG,216.0,T,207.8,M,2.7,N,5.0,K,A*2B
$GPGSV,3,1,11,02,12,051,29,05,32,073,34,10,11,022,32,13,13,347,31*70
$GPZDA,100807,13,09,14,-03,00*66
$GPGGA,100807,6010.4323,N,02500.6511,E,1,10,0.80,-1,M,19.5,M,,*4F
$SDHDG,193.9,,,8.2,E*3D
$SDHDG,193.5,,,8.2,E*31
$SDHDG,193.6,,,8.2,E*32
$SDHDG,194.0,,,8.2,E*33
$SDHDG,193.6,,,8.2,E*32
$GPVTG,216.0,T,207.8,M,2.7,N,5.0,K,A*2B
$WIMWV,201.8,T,7.1,N,A*28
$WIMWV,210.0,R,5.0,N,A*25
$SDHDG,194.0,,,8.2,E*33
$SDHDG,193.8,,,8.2,E*3C
$SDHDG,193.6,,,8.2,E*32
$GPGSA,A,3,02,05,10,13,16,21,23,25,29,31,,,1.90,0.80,1.70*0B
$GPGSV,3,1,11,02,12,051,29,05,32,073,34,10,11,022,32,13,13,347,28*78
$GPZDA,100808,13,09,14,-03,00*69
$GPRMB,,,,,,,,,,,,,,N*04
$SDHDG,193.6,,,8.2,E*32
$SDVHW,201.9,T,193.6,M,2.3,N,4.4,K*44
$GPGSV,3,2,11,16,21,306,34,21,35,202,32,23,07,323,35,25,25,149,41*71
$SDHDG,193.6,,,8.2,E*32
$SDHDG,193.8,,,8.2,E*3C
$GPRMC,100807,A,6010.4322,N,02500.6510,E,2.7,216.0,130914,8.2,E,A*14
$SDDBT,43.3,f,13.2,M,7.2,F*07
$SDHDG,193.0,,,8.2,E*34
$SDHDG,193.3,,,8.2,E*37
$WIMWD,41.1,T,32.9,M,7.1,N,3.6,M*55
$GPGSV,3,2,11,16,21,306,34,21,35,202,33,23,07,323,34,25,25,149,39*7E
$SDHDG,193.1,,,8.2,E*35
$SDHDG,193.1,,,8.2,E*35
$SDHDG,193.4,,,8.2,E*30
$GPRMB,,,,,,,,,,,,,,N*04
$GPXTE,,,,,N,N*5E
$SDHDG,193.0,,,8.2,E*34
$GPGSV,3,3,11,29,73,106,33,31,29,236,42,09,00,000,*40
$SDHDG,193.3,,,8.2,E*37
$SDHDG,193.4,,,8.2,E*30
$SDHDG,193.1,,,8.2,E*35
$SDDPT,13.2,,*65
$WIMWD,42.1,T,33.9,M,7.2,N,3.7,M*55
$SDHDG,193.4,,,8.2,E*30
$SDVHW,201.7,T,193.4,M,2.3,N,4.4,K*48
$SDHDG,193.3,,,8.2,E*37
$SDHDG,193.4,,,8.2,E*30
$WIMWV,210.0,R,5.0,N,A*25
$SDVLW,,N,0.5,N,1067.6,N,1062.8,N*7A
$SDVHW,201.5,T,193.2,M,2.3,N,4.4,K*4C
$WIMWV,199.6,T,7.1,N,A*24
$SDVLW,,N,0.5,N,1067.6,N,1062.8,N*7A
$SDDPT,13.2,,*65
$WIMWV,209.0,R,4.9,N,A*25
$SDHDG,193.3,,,8.2,E*37
$SDMTW,,C*1A
$GPGSA,A,3,02,05,10,13,16,21,23,25,29,31,,,1.90,0.80,1.70*0B
$GPRMC,100809,A,6010.4310,N,02500.6495,E,2.6,215.0,130914,8.2,E,A*15
$SDHDG,193.0,,,8.2,E*34
$SDMTW,,C*1A
$SDHDG,193.2,,,8.2,E*36
$GPXTE,,,,,N,N*5E
$SDHDG,193.0,,,8.2,E*34
$SDHDG,193.0,,,8.2,E*34
$GPVTG,215.0,T,206.8,M,2.6,N,4.8,K,A*21
$GPGLL,6010.4311,N,02500.6496,E,100809,A,A*4D
$GPZDA,100809,13,09,14,-03,00*68
$SDHDG,193.4,,,8.2,E*30
$WIMWV,200.4,T,7.2,N,A*26
$GPGSV,3,1,11,02,12,051,29,05,32,073,35,10,11,022,31,13,13,347,31*72
$SDDBT,43.3,f,13.2,M,7.2,F*07
$SDHDG,193.4,,,8.2,E*30
$GPGGA,100809,6010.4311,N,02500.6496,E,1,10,0.80,-1,M,19.5,M,,*4E
$SDHDG,193.0,,,8.2,E*34
$SDHDG,192.9,,,8.2,E*3C
$SDHDG,192.9,,,8.2,E*3C
$SDHDG,192.9,,,8.2,E*3C
$GPGSA,A,3,02,05,10,13,16,21,23,25,29,31,,,1.90,0.80,1.70*0B
$SDDPT,13.2,,*65
$WIMWV,210.0,R,4.8,N,A*2C
$GPGSV,3,1,11,02,11,051,29,05,32,073,36,10,11,022,31,13,13,347,31*72
$GPZDA,100811,13,09,14,-03,00*61
$SDDBT,43.3,f,13.2,M,7.2,F*07
$SDMTW,,C*1A
$SDVHW,201.1,T,192.9,M,2.3,N,4.4,K*42
$SDHDG,192.9,,,8.2,E*3C
$GPZDA,100810,13,09,14,-03,00*60
$SDHDG,192.9,,,8.2,E*3C
$GPGGA,100811,6010.4299,N,02500.6479,E,1,10,0.80,-1,M,19.5,M,,*47
$GPGSV,3,3,11,29,73,106,33,31,29,236,42,09,00,000,*40
$GPGLL,6010.4299,N,02500.6479,E,100811,A,A*44
$GPXTE,,,,,N,N*5E
$SDHDG,193.0,,,8.2,E*34
$GPXTE,,,,,N,N*5E
$SDHDG,192.9,,,8.2,E*3C
$SDHDG,193.0,,,8.2,E*34
$WIMWV,200.8,T,7.0,N,A*28
$SDHDG,192.9,,,8.2,E*3C
$SDDPT,13.2,,*65
$WIMWD,42.0,T,33.7,M,7.0,N,3.6,M*59
$SDMTW,,C*1A
$GPGSA,A,3,02,05,10,13,16,21,23,25,29,31,,,1.90,0.80,1.70*0B
$GPVTG,215.0,T,206.8,M,2.6,N,4.8,K,A*21
$GPVTG,215.0,T,206.8,M,2.6,N,4.8,K,A*21
$GPRMB,,,,,,,,,,,,,,N*04
$GPGSV,3,1,11,02,12,051,29,05,32,073,35,10,11,022,32,13,13,347,31*71
$SDVLW,,N,0.5,N,1067.6,N,1062.8,N*7A
$WIMWV,211.0,R,4.8,N,A*2D
$SDVLW,,N,0.5,N,1067.6,N,1062.8,N*7A
$GPRMB,,,,,,,,,,,,,,N*04
$GPGLL,6010.4304,N,02500.6487,E,100810,A,A*41
$GPGSV,3,2,11,16,21,306,33,21,35,202,33,23,07,323,34,25,25,149,39*79
$SDHDG,192.9,,,8.2,E*3C
$SDHDG,192.9,,,8.2,E*3C
$SDHDG,193.0,,,8.2,E*34
$WIMWD,41.4,T,33.2,M,7.0,N,3.6,M*5B
$WIMWV,200.1,T,7.0,N,A*21
$SDVHW,201.2,T,193.0,M,2.3,N,4.4,K*49
$GPRMC,100811,A,6010.4299,N,02500.6479,E,2.6,215.0,130914,8.2,E,A*1E
$SDDBT,43.3,f,13.2,M,7.2,F*07
$SDHDG,192.9,,,8.2,E*3C
$GPGSV,3,2,11,16,21,306,33,21,35,202,33,23,07,323,34,25,25,149,39*79
$GPRMC,100810,A,6010.4304,N,02500.6487,E,2.6,215.0,130914,8.2,E,A*1B
$GPGSV,3,3,11,29,73,106,33,31,29,236,43,09,00,000,*41
$GPGGA,100810,6010.4304,N,02500.6487,E,1,10,0.80,-1,M,19.5,M,,*42
$SDHDG,192.8,,,8.2,E*3D
$SDMTW,,C*1A
$WIMWV,210.0,R,4.7,N,A*23
$SDHDG,192.8,,,8.2,E*3D
$SDHDG,192.8,,,8.2,E*3D
$GPGLL,6010.4287,N,02500.6463,E,100813,A,A*42
$SDHDG,192.8,,,8.2,E*3D
$WIMWD,41.1,T,32.8,M,6.9,N,3.5,M*5E
$SDHDG,192.8,,,8.2,E*3D
$WIMWV,200.0,T,6.9,N,A*28
$SDVHW,201.1,T,192.8,M,2.3,N,4.4,K*43
$SDHDG,192.8,,,8.2,E*3D
$SDHDG,192.8,,,8.2,E*3D
$GPGGA,100812,6010.4293,N,02500.6471,E,1,10,0.80,0,M,19.5,M,,*6A
$GPXTE,,,,,N,N*5E
$GPZDA,100812,13,09,14,-03,00*62
$GPRMB,,,,,,,,,,,,,,N*04
$SDDPT,13.2,,*65
$WIMWD,41.1,T,32.8,M,6.9,N,3.5,M*5E
$SDHDG,192.8,,,8.2,E*3D
$SDVHW,201.0,T,192.8,M,2.3,N,4.4,K*42
$GPRMC,100812,A,6010.4293,N,02500.6471,E,2.6,215.0,130914,8.2,E,A*1F
$GPGSV,3,2,11,16,21,306,33,21,35,202,33,23,07,323,34,25,25,149,40*77
$SDHDG,192.8,,,8.2,E*3D
$GPVTG,215.0,T,206.8,M,2.6,N,4.8,K,A*21
$SDVLW,,N,0.5,N,1067.6,N,1062.8,N*7A
$GPRMB,,,,,,,,,,,,,,N*04
$SDHDG,192.8,,,8.2,E*3D
$SDHDG,192.8,,,8.2,E*3D
$WIMWV,210.0,R,4.7,N,A*23
$GPZDA,100813,13,09,14,-03,00*63
$SDMTW,,C*1A
$SDDBT,43.3,f,13.2,M,7.2,F*07
$GPGLL,6010.4293,N,02500.6471,E,100812,A,A*45
$SDHDG,192.8,,,8.2,E*3D
$GPGSV,3,3,11,29,73,106,33,31,29,236,43,09,00,000,*41
$SDHDG,192.8,,,8.2,E*3D
$GPGSV,3,2,11,16,21,306,33,21,35,202,33,23,07,323,34,25,25,149,40*77
$GPGSV,3,1,11,02,11,051,29,05,32,073,36,10,11,022,30,13,13,347,31*73
$GPGGA,100813,6010.4288,N,02500.6465,E,1,10,0.80,0,M,19.5,M,,*64
$GPGSA,A,3,02,05,10,13,16,21,23,25,29,31,,,1.90,0.80,1.70*0B
$SDHDG,192.8,,,8.2,E*3D
$SDHDG,192.8,,,8.2,E*3D
$SDHDG,192.8,,,8.2,E*3D
$GPVTG,215.0,T,206.8,M,2.6,N,4.8,K,A*21
$GPGSV,3,1,11,02,11,051,29,05,32,073,36,10,11,022,31,13,13,347,30*73
$GPRMC,100813,A,6010.4287,N,02500.6463,E,2.6,215.0,130914,8.2,E,A*18
$SDHDG,192.8,,,8.2,E*3D
$GPGSA,A,3,02,05,10,13,16,21,23,25,29,31,,,1.90,0.80,1.70*0B
$WIMWV,200.0,T,6.9,N,A*28
$SDDPT,13.2,,*65
$SDVLW,,N,0.5,N,1067.6,N,1062.8,N*7A
$SDDBT,43.3,f,13.2,M,7.2,F*07
$GPGSV,3,3,11,29,73,106,33,31,29,236,42,09,00,000,*40
$GPXTE,,,,,N,N*5E
$SDHDG,192.9,,,8.2,E*3C
$SDHDG,192.8,,,8.2,E*3D
$SDHDG,192.8,,,8.2,E*3D
$GPGGA,100814,6010.4282,N,02500.6455,E,1,10,0.80,0,M,19.5,M,,*6A
$SDVLW,,N,0.5,N,1067.6,N,1062.8,N*7A
$SDMTW,,C*1A
$SDHDG,192.7,,,8.2,E*32
$GPRMB,,,,,,,,,,,,,,N*04
$GPGLL,6010.4275,N,02500.6445,E,100815,A,A*4D
$SDHDG,192.7,,,8.2,E*32
$SDHDG,192.7,,,8.2,E*32
$SDHDG,192.7,,,8.2,E*32
$SDHDG,192.7,,,8.2,E*32
$WIMWV,210.0,R,4.5,N,A*21
$GPVTG,216.0,T,207.8,M,2.6,N,4.8,K,A*23
$SDHDG,192.7,,,8.2,E*32
$SDDPT,13.4,,*63
$WIMWV,199.7,T,6.7,N,A*22
$SDHDG,192.7,,,8.2,E*32
$GPGSV,3,1,11,02,11,051,30,05,32,073,36,10,11,022,31,13,13,347,29*73
$SDHDG,192.8,,,8.2,E*3D
$SDHDG,192.8,,,8.2,E*3D
$GPGLL,6010.4281,N,02500.6453,E,100814,A,A*40
$GPGSV,3,3,11,29,73,106,34,31,29,236,43,09,00,000,*46
$SDHDG,192.7,,,8.2,E*32
$SDHDG,192.7,,,8.2,E*32
$GPGSA,A,3,02,05,10,13,16,21,23,25,29,31,,,1.90,0.80,1.70*0B
$GPGGA,100815,6010.4276,N,02500.6447,E,1,10,0.80,0,M,19.5,M,,*63
$GPGSV,3,2,11,16,21,306,33,21,35,202,31,23,07,323,34,25,25,149,41*74
$GPGSV,3,1,11,02,11,051,30,05,32,073,36,10,11,022,30,13,13,347,30*7A
$GPGSA,A,3,02,05,10,13,16,21,23,25,29,31,,,1.90,0.80,1.70*0B
$WIMWD,40.7,T,32.5,M,6.7,N,3.4,M*5B
$SDHDG,192.7,,,8.2,E*32
$SDHDG,192.7,,,8.2,E*32
$GPRMC,100814,A,6010.4281,N,02500.6453,E,2.6,216.0,130914,8.2,E,A*19
$GPXTE,,,,,N,N*5E
$GPGSV,3,2,11,16,21,306,33,21,35,202,32,23,07,323,34,25,25,149,41*77
$GPZDA,100814,13,09,14,-03,00*64
$SDDBT,43.9,f,13.4,M,7.3,F*0A
$SDVHW,200.9,T,192.7,M,2.3,N,4.4,K*45
$SDHDG,192.7,,,8.2,E*32
$SDHDG,192.8,,,8.2,E*3D
$SDHDG,192.7,,,8.2,E*32
$SDHDG,192.8,,,8.2,E*3D
$SDVLW,,N,0.5,N,1067.6,N,1062.8,N*7A
$GPVTG,216.0,T,207.8,M,2.5,N,4.6,K,A*2E
$SDHDG,192.8,,,8.2,E*3D
$GPGLL,6010.4269,N,02500.6435,E,100816,A,A*44
$SDDBT,43.9,f,13.4,M,7.3,F*0A
$GPRMC,100815,A,6010.4275,N,02500.6445,E,2.5,216.0,130914,8.2,E,A*17
$GPGSV,3,2,11,16,21,306,32,21,35,202,31,23,07,323,34,25,25,149,41*75
$SDHDG,192.8,,,8.2,E*3D
$WIMWV,214.0,R,4.3,N,A*23
$SDHDG,192.8,,,8.2,E*3D
$GPRMC,100816,A,6010.4269,N,02500.6435,E,2.6,215.0,130914,8.2,E,A*1E
$SDVLW,,N,0.5,N,1067.6,N,1062.8,N*7A
$SDHDG,192.8,,,8.2,E*3D
$WIMWV,199.2,T,6.4,N,A*24
$SDDPT,13.4,,*63
$GPGSA,A,3,02,05,10,13,16,21,23,25,29,31,,,1.90,0.80,1.70*0B
$SDHDG,192.8,,,8.2,E*3D
$SDHDG,192.8,,,8.2,E*3D
$GPGSV,3,3,11,29,73,106,34,31,29,236,42,09,00,000,*47
$SDVHW,201.1,T,192.8,M,2.3,N,4.4,K*43
$SDHDG,192.8,,,8.2,E*3D
$SDMTW,,C*1A
$SDHDG,192.8,,,8.2,E*3D
$GPGGA,100816,6010.4270,N,02500.6437,E,1,10,0.80,0,M,19.5,M,,*61
$GPXTE,,,,,N,N*5E
$WIMWD,40.3,T,32.0,M,6.4,N,3.3,M*5E
$GPZDA,100815,13,09,14,-03,00*65
$SDHDG,192.8,,,8.2,E*3D
$SDHDG,192.8,,,8.2,E*3D
$SDHDG,192.8,,,8.2,E*3D
$SDHDG,192.8,,,8.2,E*3D
$SDDBT,43.9,f,13.4,M,7.3,F*0A
$GPZDA,100816,13,09,14,-03,00*66
$SDHDG,192.8,,,8.2,E*3D
$GPRMB,,,,,,,,,,,,,,N*04
$GPRMB,,,,,,,,,,,,,,N*04
$GPXTE,,,,,N,N*5E
$GPGSV,3,1,11,02,11,051,31,05,32,073,36,10,11,022,31,13,13,347,28*73
$WIMWV,210.0,R,4.2,N,A*26
$GPVTG,215.0,T,206.8,M,2.6,N,4.8,K,A*21
$WIMWV,199.5,T,6.3,N,A*24
$SDMTW,,C*1A
$SDDPT,13.4,,*63
$SDHDG,192.8,,,8.2,E*3D
$WIMWD,40.6,T,32.3,M,6.3,N,3.2,M*5E
$SDVHW,201.0,T,192.8,M,2.2,N,4.2,K*45
$SDHDG,192.8,,,8.2,E*3D
$GPGSV,3,3,11,29,73,106,34,31,29,236,43,09,00,000,*46
$GPGSA,A,3,02,05,10,13,16,21,23,25,29,31,,,1.90,0.80,1.70*0B
$SDDBT,43.9,f,13.4,M,7.3,F*0A
$GPGSV,3,2,11,16,21,306,32,21,35,202,30,23,07,323,34,25,25,149,38*7A
$SDHDG,192.9,,,8.2,E*3C
$GPGSV,3,3,11,29,73,106,35,31,29,236,42,09,00,000,*46
$GPGSV,3,2,11,16,21,306,32,21,35,202,31,23,07,323,33,25,25,149,40*73
$SDHDG,192.9,,,8.2,E*3C
$GPRMC,100818,A,6010.4257,N,02500.6417,E,2.4,217.0,130914,8.2,E,A*1D
$WIMWD,43.5,T,35.3,M,6.3,N,3.3,M*58
$WIMWV,201.5,T,6.2,N,A*27
$GPRMC,100817,A,6010.4263,N,02500.6426,E,2.5,215.0,130914,8.2,E,A*14
$WIMWD,42.8,T,34.6,M,6.2,N,3.2,M*50
$SDVLW,,N,0.5,N,1067.6,N,1062.8,N*7A
$SDHDG,193.0,,,8.2,E*34
$GPRMB,,,,,,,,,,,,,,N*04
$SDHDG,192.9,,,8.2,E*3C
$GPGSV,3,1,11,02,11,051,30,05,32,072,35,10,11,022,31,13,13,347,29*71
$SDVLW,,N,0.5,N,1067.6,N,1062.8,N*7A
$GPVTG,217.0,T,208.8,M,2.4,N,4.4,K,A*23
$GPGSV,3,3,11,29,73,106,36,31,29,236,42,09,00,000,*45
$SDMTW,,C*1A
$SDHDG,192.9,,,8.2,E*3C
$SDDBT,43.9,f,13.4,M,7.3,F*0A
$SDVHW,201.2,T,192.9,M,2.2,N,4.2,K*46
$SDHDG,193.0,,,8.2,E*34
$SDDPT,13.4,,*63
$GPXTE,,,,,N,N*5E
$SDHDG,192.9,,,8.2,E*3C
$GPVTG,215.0,T,206.8,M,2.5,N,4.6,K,A*2C
$GPGSV,3,1,11,02,11,051,28,05,32,072,34,10,11,022,31,13,13,347,30*71
$WIMWV,213.0,R,4.2,N,A*25
$GPGGA,100818,6010.4258,N,02500.6419,E,1,10,0.80,0,M,19.5,M,,*69
$GPZDA,100817,13,09,14,-03,00*67
$SDMTW,,C*1A
$WIMWV,202.3,T,6.3,N,A*23
$SDVHW,201.3,T,193.1,M,2.2,N,4.2,K*4E
$SDHDG,193.1,,,8.2,E*35
$SDHDG,193.1,,,8.2,E*35
$GPZDA,100818,13,09,14,-03,00*68
$GPGGA,100817,6010.4264,N,02500.6428,E,1,10,0.80,0,M,19.5,M,,*6B
$SDHDG,192.9,,,8.2,E*3C
$SDHDG,192.9,,,8.2,E*3C
$GPGLL,6010.4263,N,02500.6426,E,100817,A,A*4D
$GPXTE,,,,,N,N*5E
$SDHDG,193.0,,,8.2,E*34
$SDHDG,192.9,,,8.2,E*3C
$GPGLL,6010.4257,N,02500.6417,E,100818,A,A*47
$GPRMB,,,,,,,,,,,,,,N*04
$GPGSA,A,3,02,05,10,13,16,21,23,25,29,31,,,1.90,0.80,1.70*0B
$SDDPT,13.4,,*63
$SDHDG,193.0,,,8.2,E*34
$WIMWV,213.0,R,4.2,N,A*25
$SDHDG,193.0,,,8.2,E*34
$SDVLW,,N,0.5,N,1067.6,N,1062.8,N*7A
$SDDBT,43.9,f,13.4,M,7.3,F*0A
$SDHDG,193.2,,,8.2,E*36
$WIMWV,211.0,R,4.2,N,A*27
$SDHDG,193.1,,,8.2,E*35
$GPGGA,100819,6010.4252,N,02500.6412,E,1,10,0.80,0,M,19.5,M,,*69
$SDHDG,193.1,,,8.2,E*35
$SDHDG,193.1,,,8.2,E*35
$GPGSV,3,1,11,02,11,051,28,05,32,072,32,10,11,022,31,13,13,347,30*77
$SDHDG,193.2,,,8.2,E*36
$GPGSV,3,1,11,02,11,051,28,05,32,072,33,10,11,022,31,13,13,347,30*76
$GPZDA,100820,13,09,14,-03,00*63
$SDHDG,193.1,,,8.2,E*35
$GPRMC,100820,A,6010.4246,N,02500.6404,E,2.5,216.0,130914,8.2,E,A*14
$GPVTG,216.0,T,207.8,M,2.5,N,4.6,K,A*2E
$SDHDG,193.1,,,8.2,E*35
$SDHDG,193.3,,,8.2,E*37
$GPGGA,100820,6010.4247,N,02500.6405,E,1,10,0.80,-1,M,19.5,M,,*4D
$SDHDG,193.3,,,8.2,E*37
$GPGSV,3,3,11,29,73,106,36,31,29,236,42,09,00,000,*45
$SDDPT,13.4,,*63
$WIMWV,200.2,T,6.3,N,A*20
$WIMWV,213.0,R,4.2,N,A*25
$GPGSV,3,2,11,16,21,306,33,21,35,202,30,23,07,323,34,25,25,149,36*75
$SDHDG,193.2,,,8.2,E*36
$SDHDG,193.1,,,8.2,E*35
$SDDPT,13.4,,*63
$WIMWD,41.7,T,33.5,M,6.3,N,3.2,M*59
$GPXTE,,,,,N,N*5E
$GPGLL,6010.4251,N,02500.6411,E,100819,A,A*46
$WIMWD,42.8,T,34.6,M,6.2,N,3.2,M*50
$SDHDG,193.1,,,8.2,E*35
$SDHDG,193.1,,,8.2,E*35
$SDVHW,201.3,T,193.1,M,2.2,N,4.2,K*4E
$SDVLW,,N,0.5,N,1067.6,N,1062.8,N*7A
$GPRMB,,,,,,,,,,,,,,N*04
$WIMWV,201.5,T,6.2,N,A*27
$GPRMB,,,,,,,,,,,,,,N*04
$SDHDG,193.1,,,8.2,E*35
$GPXTE,,,,,N,N*5E
$GPGSV,3,2,11,16,21,306,32,21,35,202,30,23,07,323,34,25,25,149,36*74
$SDHDG,193.3,,,8.2,E*37
$GPGLL,6010.4246,N,02500.6404,E,100820,A,A*4E
$SDHDG,193.1,,,8.2,E*35
$GPGSA,A,3,02,05,10,13,16,21,23,25,29,31,,,1.90,0.80,1.70*0B
$GPVTG,216.0,T,207.8,M,2.5,N,4.6,K,A*2E
$GPRMC,100819,A,6010.4251,N,02500.6411,E,2.5,216.0,130914,8.2,E,A*1C
$SDHDG,193.1,,,8.2,E*35
$GPGSV,3,3,11,29,73,106,36,31,29,236,41,09,00,000,*46
$GPGSA,A,3,02,05,10,13,16,21,23,25,29,31,,,1.90,0.80,1.70*0B
$SDDBT,43.9,f,13.4,M,7.3,F*0A
$SDHDG,193.3,,,8.2,E*37
$GPZDA,100819,13,09,14,-03,00*69
$SDVHW,201.5,T,193.3,M,2.2,N,4.2,K*4A
$SDHDG,193.3,,,8.2,E*37
$SDMTW,,C*1A
$SDMTW,,C*1A
$SDHDG,193.1,,,8.2,E*35
$GPGSA,A,3,02,05,10,13,16,21,23,25,29,31,,,1.90,0.80,1.70*0B
$SDVHW,201.6,T,193.4,M,2.1,N,4.0,K*4F
$WIMWV,197.2,T,5.7,N,A*2A
$GPGLL,6010.4235,N,02500.6389,E,100822,A,A*4A
$WIMWV,196.0,T,5.6,N,A*28
$GPZDA,100821,13,09,14,-03,00*62
$SDHDG,193.4,,,8.2,E*30
$SDVLW,,N,0.5,N,1067.6,N,1062.8,N*7A
$GPXTE,,,,,N,N*5E
$GPVTG,217.0,T,208.8,M,2.5,N,4.6,K,A*20
$SDHDG,193.3,,,8.2,E*37
$SDHDG,193.4,,,8.2,E*30
$SDHDG,193.4,,,8.2,E*30
$GPGGA,100822,6010.4235,N,02500.6389,E,1,10,0.80,-1,M,19.5,M,,*49
$GPZDA,100822,13,09,14,-03,00*61
$SDHDG,193.4,,,8.2,E*30
$GPRMB,,,,,,,,,,,,,,N*04
$SDHDG,193.3,,,8.2,E*37
$GPRMB,,,,,,,,,,,,,,N*04
$WIMWD,37.7,T,29.4,M,5.6,N,2.9,M*5E
$SDHDG,193.3,,,8.2,E*37
$GPGSV,3,3,11,29,73,106,36,31,29,236,42,09,00,000,*45
$GPGSV,3,2,11,16,21,306,33,21,35,202,31,23,07,323,34,25,25,149,35*77
$SDMTW,,C*1A
$SDHDG,193.3,,,8.2,E*37
$GPGGA,100821,6010.4240,N,02500.6396,E,1,10,0.80,-1,M,19.5,M,,*46
$SDHDG,193.3,,,8.2,E*37
$SDHDG,193.4,,,8.2,E*30
$SDVHW,201.6,T,193.3,M,2.2,N,4.2,K*49
$GPGSV,3,2,11,16,21,306,33,21,35,202,32,23,07,323,34,25,25,149,35*74
$SDMTW,,C*1A
$WIMWV,206.0,R,3.5,N,A*21
$SDDPT,13.4,,*63
$GPRMC,100822,A,6010.4235,N,02500.6389,E,2.5,217.0,130914,8.2,E,A*11
$GPRMC,100821,A,6010.4240,N,02500.6396,E,2.5,216.0,130914,8.2,E,A*1F
$SDHDG,193.3,,,8.2,E*37
$SDVLW,,N,0.5,N,1067.6,N,1062.8,N*7A
$SDDBT,43.9,f,13.4,M,7.3,F*0A
$SDHDG,193.3,,,8.2,E*37
$SDHDG,193.3,,,8.2,E*37
$GPGLL,6010.4240,N,02500.6396,E,100821,A,A*45
$GPXTE,,,,,N,N*5E
$SDHDG,193.4,,,8.2,E*30
$WIMWD,38.7,T,30.5,M,5.7,N,2.9,M*59
$GPGSV,3,1,11,02,11,051,25,05,32,072,31,10,11,022,31,13,13,347,30*79
$GPGSA,A,3,02,05,10,13,16,21,23,25,29,31,,,1.90,0.80,1.70*0B
$SDHDG,193.4,,,8.2,E*30
$SDHDG,193.3,,,8.2,E*37
$GPGSV,3,3,11,29,73,106,34,31,29,236,42,09,00,000,*47
$SDHDG,193.3,,,8.2,E*37
$SDDBT,43.9,f,13.4,M,7.3,F*0A
$SDHDG,193.3,,,8.2,E*37
$WIMWV,208.0,R,3.6,N,A*2C
$SDHDG,193.4,,,8.2,E*30
$SDDPT,13.4,,*63
$GPVTG,216.0,T,207.8,M,2.5,N,4.6,K,A*2E
$GPGSV,3,1,11,02,11,051,25,05,32,072,31,10,11,022,32,13,13,347,30*7A
$GPGSV,3,3,11,29,73,106,35,31,29,236,42,09,00,000,*46
$SDHDG,193.4,,,8.2,E*30
$SDHDG,193.4,,,8.2,E*30
$SDHDG,193.4,,,8.2,E*30
$SDHDG,193.5,,,8.2,E*31
$SDDPT,13.4,,*63
$GPRMB,,,,,,,,,,,,,,N*04
$SDHDG,193.5,,,8.2,E*31
$SDHDG,193.5,,,8.2,E*31
$GPXTE,,,,,N,N*5E
$SDHDG,193.5,,,8.2,E*31
$SDHDG,193.5,,,8.2,E*31
$WIMWV,206.0,R,3.1,N,A*25
$SDVLW,,N,0.5,N,1067.6,N,1062.8,N*7A
$SDHDG,193.5,,,8.2,E*31
$GPZDA,100823,13,09,14,-03,00*60
$SDHDG,193.5,,,8.2,E*31
$SDDBT,43.9,f,13.4,M,7.3,F*0A
$GPGGA,100823,6010.4229,N,02500.6380,E,1,10,0.80,-1,M,19.5,M,,*4C
$GPGSA,A,3,02,05,10,13,16,21,23,25,29,31,,,1.90,0.80,1.70*0B
$SDVHW,201.8,T,193.5,M,2.1,N,4.0,K*40
$GPGLL,6010.4229,N,02500.6380,E,100823,A,A*4F
$WIMWD,37.0,T,28.8,M,5.2,N,2.7,M*5E
$GPGSV,3,1,11,02,11,051,24,05,32,072,30,10,11,022,32,13,13,347,29*72
$GPRMC,100823,A,6010.4229,N,02500.6380,E,2.4,218.0,130914,8.2,E,A*1A
$GPVTG,218.0,T,209.8,M,2.4,N,4.4,K,A*2D
$WIMWV,195.2,T,5.2,N,A*2D
$SDHDG,193.5,,,8.2,E*31
$SDMTW,,C*1A
$SDHDG,193.5,,,8.2,E*31
$SDHDG,193.4,,,8.2,E*30
$GPGSV,3,2,11,16,21,306,33,21,35,202,32,23,07,323,34,25,25,149,31*70
$SDHDG,193.5,,,8.2,E*31
$SDHDG,193.5,,,8.2,E*31
$GPXTE,,,,,N,N*5E
$GPGSA,A,3,02,05,10,13,16,21,23,25,29,31,,,1.90,0.80,1.70*0B
$SDHDG,193.6,,,8.2,E*32
$GPGSV,3,2,11,16,21,306,33,21,35,202,32,23,07,323,34,25,25,149,30*71
$SDVLW,,N,0.5,N,1067.6,N,1062.8,N*7A
$GPGSV,3,3,11,29,73,106,35,31,29,236,42,09,00,000,*46
$GPGGA,100825,6010.4218,N,02500.6365,E,1,10,0.80,-1,M,19.5,M,,*43
$SDHDG,193.6,,,8.2,E*32
$GPGGA,100824,6010.4224,N,02500.6372,E,1,10,0.80,-1,M,19.5,M,,*4B
$SDHDG,193.7,,,8.2,E*33
$SDHDG,193.5,,,8.2,E*31
$SDHDG,193.6,,,8.2,E*32
$GPGSV,3,2,11,16,21,306,33,21,35,202,32,23,07,323,35,25,25,149,31*71
$WIMWV,204.0,R,2.8,N,A*2F
$GPVTG,215.0,T,206.8,M,2.4,N,4.4,K,A*2F
$GPXTE,,,,,N,N*5E
$SDHDG,193.6,,,8.2,E*32
$SDMTW,,C*1A
$GPGSV,3,3,11,29,73,106,35,31,29,236,42,09,00,000,*46
$SDDBT,43.9,f,13.4,M,7.3,F*0A
$SDDBT,43.9,f,13.4,M,7.3,F*0A
$GPGLL,6010.4224,N,02500.6372,E,100824,A,A*48
$SDHDG,193.5,,,8.2,E*31
$GPRMB,,,,,,,,,,,,,,N*04
$WIMWD,35.3,T,27.1,M,4.9,N,2.5,M*51
$SDVLW,,N,0.5,N,1067.6,N,1062.8,N*7A
$GPRMC,100824,A,6010.4224,N,02500.6372,E,2.4,215.0,130914,8.2,E,A*10
$SDHDG,193.6,,,8.2,E*32
$GPGSA,A,3,02,05,10,13,16,21,23,25,29,31,,,1.90,0.80,1.70*0B
$GPRMB,,,,,,,,,,,,,,N*04
$SDDPT,13.4,,*63
$GPZDA,100824,13,09,14,-03,00*67
$GPZDA,100825,13,09,14,-03,00*66
$SDDPT,13.4,,*63
$GPVTG,215.0,T,206.8,M,2.4,N,4.4,K,A*2F
$WIMWV,197.0,R,2.5,N,A*2B
$WIMWD,31.0,T,22.8,M,4.7,N,2.4,M*55
$GPGLL,6010.4218,N,02500.6365,E,100825,A,A*40
$SDVHW,201.8,T,193.6,M,2.1,N,4.0,K*43
$GPGSV,3,1,11,02,11,051,24,05,32,072,28,10,11,022,32,13,13,347,29*7B
$WIMWV,189.1,T,4.7,N,A*27
$SDHDG,193.5,,,8.2,E*31
$SDVHW,201.9,T,193.6,M,2.1,N,4.0,K*42
$SDHDG,193.5,,,8.2,E*31
$SDHDG,193.6,,,8.2,E*32
$SDHDG,193.5,,,8.2,E*31
$WIMWV,193.5,T,4.9,N,A*26
$SDHDG,193.6,,,8.2,E*32
$SDHDG,193.6,,,8.2,E*32
$GPRMC,100825,A,6010.4218,N,02500.6365,E,2.4,215.0,130914,8.2,E,A*18
$SDMTW,,C*1A
$SDHDG,193.6,,,8.2,E*32
$GPGSV,3,1,11,02,11,051,24,05,32,072,29,10,11,022,32,13,13,347,29*7A
$SDHDG,193.7,,,8.2,E*33
$SDHDG,193.7,,,8.2,E*33
$WIMWV,192.0,R,2.2,N,A*29
$SDHDG,193.7,,,8.2,E*33
$SDVLW,,N,0.5,N,1067.6,N,1062.8,N*7A
$GPVTG,217.0,T,208.8,M,2.4,N,4.4,K,A*23
$SDDPT,13.4,,*63
$SDHDG,193.7,,,8.2,E*33
$SDHDG,193.7,,,8.2,E*33
$GPRMC,100827,A,6010.4209,N,02500.6348,E,2.4,217.0,130914,8.2,E,A*17
$WIMWV,186.0,T,4.4,N,A*2A
$SDHDG,193.6,,,8.2,E*32
$SDHDG,193.8,,,8.2,E*3C
$GPVTG,217.0,T,208.8,M,2.5,N,4.6,K,A*20
$GPZDA,100826,13,09,14,-03,00*65
$GPRMB,,,,,,,,,,,,,,N*04
$GPGSV,3,3,11,29,73,106,35,31,29,236,41,09,00,000,*45
$GPRMC,100826,A,6010.4214,N,02500.6357,E,2.5,217.0,130914,8.2,E,A*15
$SDHDG,193.6,,,8.2,E*32
$GPGLL,6010.4214,N,02500.6357,E,100826,A,A*4E
$GPGGA,100827,6010.4209,N,02500.6348,E,1,10,0.80,-1,M,19.5,M,,*4E
$GPGSA,A,3,02,05,10,13,16,21,23,25,29,31,,,1.90,0.80,1.70*0B
$GPGGA,100826,6010.4214,N,02500.6357,E,1,10,0.80,-1,M,19.5,M,,*4D
$WIMWD,28.1,T,19.8,M,4.4,N,2.2,M*51
$SDHDG,193.8,,,8.2,E*3C
$SDHDG,193.7,,,8.2,E*33
$SDHDG,193.7,,,8.2,E*33
$SDDPT,13.4,,*63
$WIMWV,184.0,R,1.6,N,A*29
$WIMWV,186.0,T,4.4,N,A*2A
$GPXTE,,,,,N,N*5E
$SDHDG,193.7,,,8.2,E*33
$SDHDG,193.7,,,8.2,E*33
$SDVHW,202.0,T,193.8,M,2.1,N,4.0,K*46
$SDHDG,193.8,,,8.2,E*3C
$GPGSV,3,1,11,02,11,051,24,05,32,072,28,10,11,022,32,13,13,347,30*73
$GPXTE,,,,,N,N*5E
$SDVLW,,N,0.5,N,1067.6,N,1062.8,N*7A
$SDVHW,201.9,T,193.7,M,2.1,N,4.0,K*43
$SDHDG,193.7,,,8.2,E*33
$GPGSV,3,1,11,02,11,051,25,05,32,072,28,10,11,022,32,13,13,347,30*72
$SDDBT,43.9,f,13.4,M,7.3,F*0A
$GPGSA,A,3,02,05,10,13,16,21,23,25,29,31,,,1.90,0.80,1.70*0B
$SDHDG,193.7,,,8.2,E*33
$GPRMB,,,,,,,,,,,,,,N*04
$WIMWD,27.9,T,19.7,M,4.4,N,2.2,M*59
$SDHDG,193.7,,,8.2,E*33
$GPZDA,100827,13,09,14,-03,00*64
$GPGSV,3,2,11,16,21,306,33,21,35,202,33,23,07,323,34,25,25,149,30*70
$SDHDG,193.7,,,8.2,E*33
$SDMTW,,C*1A
$GPGLL,6010.4209,N,02500.6348,E,100827,A,A*4D
$SDDBT,43.9,f,13.4,M,7.3,F*0A
$GPGSV,3,2,11,16,21,306,33,21,35,202,32,23,07,323,34,25,25,149,30*71
$GPGSV,3,3,11,29,73,106,35,31,29,236,42,09,00,000,*46
$SDMTW,,C*1A
$SDHDG,193.8,,,8.2,E*3C
$SDHDG,193.7,,,8.2,E*33
$SDHDG,193.7,,,8.2,E*33
$WIMWV,181.7,T,3.8,N,A*21
$GPGGA,100829,6010.4199,N,02500.6333,E,1,10,0.80,-1,M,19.5,M,,*46
$SDHDG,193.6,,,8.2,E*32
$GPVTG,217.0,T,208.8,M,2.4,N,4.4,K,A*23
$SDHDG,193.7,,,8.2,E*33
$SDHDG,193.6,,,8.2,E*32
$SDHDG,193.7,,,8.2,E*33
$GPGSV,3,3,11,29,73,106,34,31,29,236,42,09,00,000,*47
$GPZDA,100828,13,09,14,-03,00*6B
$WIMWD,23.6,T,15.4,M,3.8,N,1.9,M*5E
$GPGGA,100828,6010.4204,N,02500.6340,E,1,10,0.80,-1,M,19.5,M,,*44
$WIMWV,178.0,R,1.2,N,A*2E
$SDMTW,,C*1A
$SDHDG,193.6,,,8.2,E*32
$GPGSV,3,2,11,16,21,306,32,21,35,202,32,23,07,323,34,25,25,149,32*72
$GPRMB,,,,,,,,,,,,,,N*04
$SDHDG,193.6,,,8.2,E*32
$SDHDG,193.6,,,8.2,E*32
$SDHDG,193.7,,,8.2,E*33
$GPGSV,3,1,11,02,11,051,25,05,32,072,29,10,11,022,32,13,13,347,31*72
$SDHDG,193.7,,,8.2,E*33
$SDHDG,193.7,,,8.2,E*33
$SDHDG,193.6,,,8.2,E*32
$SDVHW,201.9,T,193.6,M,2.1,N,4.0,K*42
$SDHDG,193.6,,,8.2,E*32
$GPGLL,6010.4198,N,02500.6331,E,100829,A,A*46
$GPXTE,,,,,N,N*5E
$SDDPT,13.4,,*63
$SDHDG,193.6,,,8.2,E*32
$GPGSA,A,3,02,05,10,13,16,21,23,25,29,31,,,1.90,0.80,1.70*0B
$SDHDG,193.7,,,8.2,E*33
$SDHDG,193.6,,,8.2,E*32
$SDHDG,193.6,,,8.2,E*32
$SDDBT,43.9,f,13.4,M,7.3,F*0A
$GPGSA,A,3,02,05,10,13,16,21,23,25,29,31,,,1.90,0.80,1.70*0B
$GPGLL,6010.4204,N,02500.6340,E,100828,A,A*47
$GPRMC,100828,A,6010.4204,N,02500.6340,E,2.4,217.0,130914,8.2,E,A*1D
$GPGSV,3,2,11,16,21,306,33,21,35,202,31,23,07,323,35,25,25,149,32*71
$SDVLW,,N,0.5,N,1067.6,N,1062.8,N*7A
$GPGSV,3,1,11,02,11,051,24,05,32,072,29,10,11,022,32,13,13,347,30*72
$SDHDG,193.6,,,8.2,E*32
$GPZDA,100829,13,09,14,-03,00*6A
$SDHDG,193.6,,,8.2,E*32
$WIMWD,21.2,T,13.0,M,3.4,N,1.7,M*58
$SDHDG,193.6,,,8.2,E*32
$SDVLW,,N,0.5,N,1067.6,N,1062.8,N*7A
$SDHDG,193.6,,,8.2,E*32
$SDHDG,193.4,,,8.2,E*30
$GPVTG,217.0,T,208.8,M,2.3,N,4.2,K,A*22
$SDHDG,193.5,,,8.2,E*31
$GPGSV,3,2,11,16,21,306,33,21,35,202,28,23,07,323,34,25,25,149,35*7F
$WIMWD,18.9,T,10.6,M,3.1,N,1.6,M*58
$WIMWV,172.0,R,1.0,N,A*26
$GPGGA,100830,6010.4192,N,02500.6322,E,1,10,0.80,-1,M,19.5,M,,*45
$SDMTW,,C*1A
$SDDPT,13.4,,*63
$SDHDG,193.6,,,8.2,E*32
$GPRMC,100830,A,6010.4192,N,02500.6322,E,2.3,217.0,130914,8.2,E,A*1B
$SDHDG,193.5,,,8.2,E*31
$SDHDG,193.6,,,8.2,E*32
$SDVHW,201.9,T,193.6,M,2.1,N,4.0,K*42
$SDDBT,43.9,f,13.4,M,7.3,F*0A
$GPVTG,216.0,T,207.8,M,2.3,N,4.2,K,A*2C
$GPGSV,3,1,11,02,11,051,24,05,32,072,30,10,11,022,32,13,13,347,31*7B
$GPRMB,,,,,,,,,,,,,,N*04
$SDDBT,43.9,f,13.4,M,7.3,F*0A
$SDMTW,,C*1A
$WIMWV,179.3,T,3.4,N,A*2E
$GPGSV,3,3,11,29,73,106,35,31,29,236,42,09,00,000,*46
$GPGSV,3,3,11,29,73,106,36,31,29,236,42,09,00,000,*45
$WIMWV,171.0,R,1.0,N,A*25
$SDHDG,193.5,,,8.2,E*31
$GPGSA,A,3,02,05,10,13,16,21,23,25,29,31,,,1.90,0.80,1.70*0B
$SDHDG,193.4,,,8.2,E*30
$SDDPT,13.4,,*63
$GPXTE,,,,,N,N*5E
$GPRMB,,,,,,,,,,,,,,N*04
$SDHDG,193.6,,,8.2,E*32
$GPRMC,100829,A,6010.4198,N,02500.6331,E,2.3,216.0,130914,8.2,E,A*1A
$SDHDG,193.5,,,8.2,E*31
$GPZDA,100830,13,09,14,-03,00*62
$SDVHW,201.7,T,193.4,M,2.0,N,3.8,K*40
$GPGLL,6010.4192,N,02500.6322,E,100830,A,A*46
$GPXTE,,,,,N,N*5E
$SDVLW,,N,0.5,N,1067.6,N,1062.8,N*7A
$WIMWV,177.1,T,3.1,N,A*27
$SDHDG,193.3,,,8.2,E*37
$WIMWV,172.0,R,1.0,N,A*26
$GPZDA,100831,13,09,14,-03,00*63
$SDHDG,193.0,,,8.2,E*34
$GPGLL,6010.4181,N,02500.6306,E,100832,A,A*40
$SDHDG,193.2,,,8.2,E*36
$GPGGA,100832,6010.4181,N,02500.6306,E,1,10,0.80,-1,M,19.5,M,,*43
$WIMWD,21.3,T,13.0,M,3.3,N,1.7,M*5E
$GPGSV,3,2,11,16,21,306,33,21,35,202,25,23,07,323,35,25,25,149,39*7F
$SDMTW,,C*1A
$GPVTG,216.0,T,207.8,M,2.3,N,4.2,K,A*2C
$WIMWV,180.0,R,1.2,N,A*29
$GPGSV,3,3,11,29,73,106,35,31,29,236,43,09,00,000,*47
$GPRMC,100831,A,6010.4186,N,02500.6314,E,2.4,217.0,130914,8.2,E,A*1D
$SDHDG,193.0,,,8.2,E*34
$SDHDG,193.2,,,8.2,E*36
$SDVHW,201.3,T,193.1,M,2.0,N,3.8,K*41
$SDVLW,,N,0.5,N,1067.6,N,1062.8,N*7A
$SDDPT,13.4,,*63
$SDHDG,193.0,,,8.2,E*34
$GPXTE,,,,,N,N*5E
$SDHDG,193.0,,,8.2,E*34
$SDHDG,193.0,,,8.2,E*34
$SDVLW,,N,0.5,N,1067.6,N,1062.8,N*7A
$SDHDG,193.0,,,8.2,E*34
$SDHDG,193.2,,,8.2,E*36
$SDHDG,193.4,,,8.2,E*30
$SDVHW,201.3,T,193.0,M,2.0,N,3.8,K*40
$GPRMB,,,,,,,,,,,,,,N*04
$GPGLL,6010.4186,N,02500.6314,E,100831,A,A*47
$GPXTE,,,,,N,N*5E
$WIMWV,177.4,T,3.1,N,A*22
$SDHDG,193.0,,,8.2,E*34
$SDHDG,193.0,,,8.2,E*34
$GPGSV,3,2,11,16,21,306,32,21,35,202,27,23,07,323,35,25,25,149,39*7C
$GPGGA,100831,6010.4186,N,02500.6314,E,1,10,0.80,-1,M,19.5,M,,*44
$GPRMC,100832,A,6010.4181,N,02500.6306,E,2.3,216.0,130914,8.2,E,A*1C
$GPZDA,100832,13,09,14,-03,00*60
$SDHDG,193.1,,,8.2,E*35
$WIMWV,180.0,T,3.3,N,A*2C
$SDHDG,193.1,,,8.2,E*35
$SDDBT,43.9,f,13.4,M,7.3,F*0A
$GPGSV,3,3,11,29,73,106,35,31,29,236,42,09,00,000,*46
$SDDPT,13.4,,*63
$SDHDG,193.3,,,8.2,E*37
$SDDBT,43.9,f,13.4,M,7.3,F*0A
$GPGSA,A,3,02,05,10,13,16,21,23,25,29,31,,,1.90,0.80,1.70*0B
$WIMWD,18.9,T,10.6,M,3.1,N,1.6,M*58
$SDHDG,193.2,,,8.2,E*36
$GPRMB,,,,,,,,,,,,,,N*04
$SDHDG,193.0,,,8.2,E*34
$GPGSA,A,3,02,05,10,13,16,21,23,25,29,31,,,1.90,0.80,1.70*0B
$GPVTG,217.0,T,208.8,M,2.4,N,4.4,K,A*23
$SDMTW,,C*1A
$GPGSV,3,1,11,02,11,051,24,05,32,072,30,10,11,022,33,13,13,347,30*7B
$SDHDG,193.0,,,8.2,E*34
$SDHDG,193.3,,,8.2,E*37
$GPGSV,3,1,11,02,11,051,24,05,32,072,31,10,11,022,33,13,13,347,30*7A
$SDHDG,192.9,,,8.2,E*3C
$GPGSV,3,2,11,16,21,306,32,21,35,202,28,23,07,323,34,25,25,149,40*7C
$GPRMC,100833,A,6010.4175,N,02500.6298,E,2.4,216.0,130914,8.2,E,A*17
$SDHDG,192.9,,,8.2,E*3C
$SDHDG,193.1,,,8.2,E*35
$GPGSA,A,3,02,05,10,13,16,21,23,25,29,31,,,1.90,0.80,1.70*0B
$SDHDG,193.0,,,8.2,E*34
$SDHDG,193.0,,,8.2,E*34
$SDHDG,193.0,,,8.2,E*34
$GPRMC,100834,A,6010.4170,N,02500.6291,E,2.4,217.0,130914,8.2,E,A*1D
$SDHDG,193.0,,,8.2,E*34
$GPZDA,100834,13,09,14,-03,00*66
$SDMTW,,C*1A
$SDDPT,13.5,,*62
$GPVTG,217.0,T,208.8,M,2.4,N,4.4,K,A*23
$GPGGA,100833,6010.4175,N,02500.6298,E,1,10,0.80,-1,M,19.5,M,,*4F
$WIMWV,173.0,R,1.4,N,A*23
$GPGLL,6010.4175,N,02500.6298,E,100833,A,A*4C
$SDVLW,,N,0.5,N,1067.6,N,1062.8,N*7A
$GPGSV,3,3,11,29,73,106,36,31,29,236,41,09,00,000,*46
$SDHDG,193.1,,,8.2,E*35
$WIMWD,18.6,T,10.3,M,3.5,N,1.8,M*58
$GPZDA,100833,13,09,14,-03,00*61
$GPGSA,A,3,02,05,10,13,16,21,23,25,29,31,,,1.90,0.80,1.70*0B
$SDHDG,193.0,,,8.2,E*34
$SDVHW,201.3,T,193.0,M,2.0,N,3.8,K*40
$SDHDG,193.0,,,8.2,E*34
$GPGSV,3,1,11,02,11,051,23,05,32,072,31,10,11,022,33,13,13,346,29*74
$GPXTE,,,,,N,N*5E
$SDHDG,192.8,,,8.2,E*3D
$SDHDG,193.0,,,8.2,E*34
$SDHDG,192.9,,,8.2,E*3C
$SDHDG,193.1,,,8.2,E*35
$GPRMB,,,,,,,,,,,,,,N*04
$GPGGA,100834,6010.4170,N,02500.6291,E,1,10,0.80,-1,M,19.5,M,,*44
$SDHDG,192.8,,,8.2,E*3D
$WIMWV,177.2,T,3.5,N,A*20
$SDHDG,193.1,,,8.2,E*35
$GPVTG,216.0,T,207.8,M,2.4,N,4.4,K,A*2D
$GPGSV,3,3,11,29,73,106,35,31,29,236,41,09,00,000,*45
$SDHDG,192.8,,,8.2,E*3D
$GPRMB,,,,,,,,,,,,,,N*04
$GPGSV,3,2,11,16,21,306,32,21,35,202,26,23,07,323,34,25,25,149,40*72
$SDDBT,44.2,f,13.5,M,7.3,F*07
$GPGLL,6010.4170,N,02500.6291,E,100834,A,A*47
$SDHDG,193.0,,,8.2,E*34
$GPXTE,,,,,N,N*5E
$SDHDG,193.1,,,8.2,E*35
$GPGSV,3,1,11,02,11,051,24,05,32,072,31,10,11,022,33,13,13,347,29*72
$GPGSV,3,1,11,02,11,051,22,05,32,072,31,10,11,022,33,13,13,346,29*75
$SDHDG,192.8,,,8.2,E*3D
$SDHDG,192.8,,,8.2,E*3D
$SDHDG,192.8,,,8.2,E*3D
$SDHDG,192.8,,,8.2,E*3D
$SDHDG,192.8,,,8.2,E*3D
$GPGSV,3,3,11,29,73,106,36,31,29,236,41,09,00,000,*46
$WIMWD,11.6,T,3.4,M,3.8,N,1.9,M*68
$GPXTE,,,,,N,N*5E
$GPGSV,3,1,11,02,11,051,22,05,32,072,31,10,11,022,33,13,13,346,29*75
$SDDPT,13.6,,*61
$WIMWV,174.0,T,3.7,N,A*23
$GPGGA,100835,6010.4164,N,02500.6285,E,1,10,0.80,-1,M,19.5,M,,*45
$GPVTG,218.0,T,209.8,M,2.4,N,4.4,K,A*2D
$SDMTW,,C*1A
$SDHDG,192.8,,,8.2,E*3D
$GPGLL,6010.4159,N,02500.6278,E,100836,A,A*49
$SDHDG,192.8,,,8.2,E*3D
$GPZDA,100835,13,09,14,-03,00*67
$WIMWV,160.0,R,1.8,N,A*2D
$WIMWV,170.5,T,3.8,N,A*2D
$SDVHW,201.0,T,192.8,M,2.0,N,3.7,K*45
$GPGSA,A,3,02,05,10,13,16,21,23,25,29,31,,,1.90,0.80,1.70*0B
$SDDBT,44.6,f,13.6,M,7.4,F*07
$SDHDG,192.8,,,8.2,E*3D
$SDHDG,192.7,,,8.2,E*32
$WIMWV,167.0,R,1.7,N,A*25
$SDVHW,201.1,T,192.8,M,2.0,N,3.7,K*44
$SDVLW,,N,0.5,N,1067.6,N,1062.8,N*7A
$GPRMC,100835,A,6010.4164,N,02500.6285,E,2.4,218.0,130914,8.2,E,A*13
$WIMWD,15.2,T,6.9,M,3.7,N,1.9,M*6F
$SDHDG,192.8,,,8.2,E*3D
$GPRMB,,,,,,,,,,,,,,N*04
$GPGSV,3,2,11,16,21,306,32,21,35,202,27,23,07,323,34,25,25,149,39*7D
$SDVLW,,N,0.5,N,1067.7,N,1062.8,N*7B
$SDHDG,192.8,,,8.2,E*3D
$SDHDG,192.8,,,8.2,E*3D
$SDDBT,44.6,f,13.6,M,7.4,F*07
$GPGLL,6010.4164,N,02500.6285,E,100835,A,A*46
$SDHDG,192.8,,,8.2,E*3D
$SDHDG,192.8,,,8.2,E*3D
$SDDPT,13.6,,*61
$GPGSA,A,3,02,05,10,13,16,21,23,25,29,31,,,1.90,0.80,1.70*0B
$SDMTW,,C*1A
$SDHDG,192.8,,,8.2,E*3D
$SDHDG,192.8,,,8.2,E*3D
$SDHDG,192.7,,,8.2,E*32
$GPGSV,3,2,11,16,21,306,32,21,35,202,26,23,07,323,34,25,25,149,40*72
$SDHDG,192.8,,,8.2,E*3D
$GPGGA,100836,6010.4159,N,02500.6278,E,1,10,0.80,-1,M,19.5,M,,*4A
$SDDPT,13.6,,*61
$SDVHW,200.8,T,192.6,M,2.0,N,3.7,K*42
$WIMWV,166.8,T,3.8,N,A*27
$SDDPT,13.6,,*61
$WIMWD,2.6,T,354.4,M,3.8,N,2.0,M*51
$GPGSV,3,1,11,02,11,051,24,05,32,072,32,10,11,022,33,13,13,346,28*71
$SDHDG,192.6,,,8.2,E*33
$SDHDG,192.6,,,8.2,E*33
$SDMTW,,C*1A
$SDDBT,44.6,f,13.6,M,7.4,F*07
$SDHDG,192.5,,,8.2,E*30
$WIMWV,153.0,R,1.9,N,A*2C
$WIMWV,162.0,T,3.8,N,A*2B
$GPGGA,100837,6010.4153,N,02500.6272,E,1,10,0.80,-1,M,19.5,M,,*4B
$SDHDG,192.4,,,8.2,E*31
$SDDBT,44.6,f,13.6,M,7.4,F*07
$GPRMB,,,,,,,,,,,,,,N*04
$SDVLW,,N,0.5,N,1067.7,N,1062.8,N*7B
$SDVHW,200.5,T,192.3,M,2.0,N,3.7,K*4A
$GPGSV,3,3,11,29,73,106,36,31,29,236,42,09,00,000,*45
$SDHDG,192.5,,,8.2,E*30
$GPRMC,100837,A,6010.4153,N,02500.6272,E,2.4,216.0,130914,8.2,E,A*13
$GPXTE,,,,,N,N*5E
$SDHDG,192.4,,,8.2,E*31
$GPRMB,,,,,,,,,,,,,,N*04
$SDHDG,192.3,,,8.2,E*36
$SDHDG,192.3,,,8.2,E*36
$GPZDA,100836,13,09,14,-03,00*64
$GPRMC,100836,A,6010.4159,N,02500.6278,E,2.3,217.0,130914,8.2,E,A*14
$WIMWV,144.0,R,2.0,N,A*20
$SDHDG,192.3,,,8.2,E*36
$SDHDG,192.4,,,8.2,E*31
$GPGSV,3,2,11,16,21,306,32,21,35,202,25,23,07,323,35,25,25,149,39*7E
$GPZDA,100837,13,09,14,-03,00*65
$GPVTG,216.0,T,207.8,M,2.4,N,4.4,K,A*2D
$SDHDG,192.3,,,8.2,E*36
$SDHDG,192.7,,,8.2,E*32
$SDVLW,,N,0.5,N,1067.7,N,1062.8,N*7B
$WIMWD,7.8,T,359.6,M,3.8,N,2.0,M*55
$GPGSA,A,3,02,05,10,13,16,21,23,25,29,31,,,1.90,0.80,1.70*0B
$GPGSV,3,3,11,29,73,106,36,31,29,236,42,09,00,000,*45
$SDMTW,,C*1A
$GPGLL,6010.4153,N,02500.6272,E,100837,A,A*48
$GPXTE,,,,,N,N*5E
$GPVTG,217.0,T,208.8,M,2.3,N,4.2,K,A*22
$SDHDG,192.6,,,8.2,E*33
$GPGSV,3,3,11,29,73,106,36,31,29,236,42,09,00,000,*45
$GPRMB,,,,,,,,,,,,,,N*04
$SDHDG,192.3,,,8.2,E*36
$SDDPT,13.6,,*61
$SDHDG,192.2,,,8.2,E*37
$GPGSV,3,1,11,02,11,051,25,05,32,072,33,10,11,022,33,13,13,346,29*70
$SDHDG,192.2,,,8.2,E*37
$SDHDG,192.2,,,8.2,E*37
$SDVHW,200.4,T,192.2,M,2.0,N,3.7,K*4A
$GPGSA,A,3,02,05,10,13,16,21,23,25,29,31,,,1.90,0.80,1.70*0B
$GPGSA,A,3,02,05,10,13,16,21,23,25,29,31,,,1.90,0.80,1.70*0B
$GPXTE,,,,,N,N*5E
$SDHDG,192.3,,,8.2,E*36
$SDDBT,44.6,f,13.6,M,7.4,F*07
$WIMWD,2.5,T,354.3,M,3.8,N,2.0,M*55
$SDHDG,192.3,,,8.2,E*36
$SDHDG,192.3,,,8.2,E*36
$WIMWV,160.0,R,1.9,N,A*2C
$SDHDG,192.2,,,8.2,E*37
$SDHDG,192.1,,,8.2,E*34
$GPGGA,100838,6010.4148,N,02500.6266,E,1,10,0.80,-1,M,19.5,M,,*4B
$SDHDG,192.1,,,8.2,E*34
$SDHDG,192.2,,,8.2,E*37
$SDVLW,,N,0.5,N,1067.7,N,1062.8,N*7B
$SDHDG,192.3,,,8.2,E*36
$GPGSV,3,2,11,16,21,306,31,21,35,202,26,23,07,323,35,25,25,149,40*70
$GPGSV,3,3,11,29,73,106,36,31,29,236,43,09,00,000,*44
$SDHDG,192.3,,,8.2,E*36
$GPRMC,100838,A,6010.4148,N,02500.6266,E,2.4,217.0,130914,8.2,E,A*12
$GPGSV,3,2,11,16,21,306,32,21,35,202,25,23,07,323,35,25,25,149,40*70
$GPGLL,6010.4142,N,02500.6258,E,100839,A,A*4E
$SDHDG,192.1,,,8.2,E*34
$GPVTG,217.0,T,208.8,M,2.4,N,4.4,K,A*23
$WIMWV,170.3,T,3.8,N,A*2B
$GPRMC,100839,A,6010.4142,N,02500.6258,E,2.5,217.0,130914,8.2,E,A*15
$SDHDG,192.2,,,8.2,E*37
$GPGSV,3,1,11,02,11,051,25,05,32,072,33,10,11,022,33,13,13,346,29*70
$SDHDG,192.2,,,8.2,E*37
$GPGGA,100839,6010.4142,N,02500.6258,E,1,10,0.80,-1,M,19.5,M,,*4D
$GPRMB,,,,,,,,,,,,,,N*04
$SDMTW,,C*1A
$GPZDA,100838,13,09,14,-03,00*6A
$GPVTG,217.0,T,208.8,M,2.5,N,4.6,K,A*20
$GPZDA,100839,13,09,14,-03,00*6B
$GPGLL,6010.4148,N,02500.6266,E,100838,A,A*48
$SDHDG,192.2,,,8.2,E*37
$GPXTE,,,,,N,N*5E
$SDHDG,192.1,,,8.2,E*34
$SDHDG,192.1,,,8.2,E*34
$SDMTW,,C*1A
$SDDPT,13.6,,*61
$SDHDG,191.2,,,8.2,E*34
$GPGLL,6010.4136,N,02500.6251,E,100840,A,A*4A
$SDHDG,191.5,,,8.2,E*33
$SDHDG,192.0,,,8.2,E*35
$GPRMC,100840,A,6010.4136,N,02500.6251,E,2.6,216.0,130914,8.2,E,A*13
$SDHDG,192.0,,,8.2,E*35
$SDVLW,,N,0.5,N,1067.7,N,1062.8,N*7B
$SDHDG,192.1,,,8.2,E*34
$SDDPT,13.6,,*61
$GPGSV,3,1,11,02,11,051,28,05,32,072,34,10,11,022,32,13,13,346,29*7B
$SDDBT,44.6,f,13.6,M,7.4,F*07
$SDMTW,,C*1A
$WIMWV,152.6,T,3.3,N,A*25
$SDHDG,191.3,,,8.2,E*35
$SDVHW,200.4,T,192.1,M,2.0,N,3.7,K*49
$SDHDG,192.1,,,8.2,E*34
$SDHDG,191.8,,,8.2,E*3E
$GPVTG,216.0,T,207.8,M,2.6,N,4.8,K,A*23
$SDHDG,191.0,,,8.2,E*36
$GPGGA,100841,6010.4131,N,02500.6242,E,1,10,0.80,-1,M,19.5,M,,*4D
$SDHDG,191.0,,,8.2,E*36
$SDHDG,191.7,,,8.2,E*31
$SDHDG,191.9,,,8.2,E*3F
$WIMWD,10.4,T,2.1,M,3.8,N,2.0,M*65
$GPGSV,3,2,11,16,21,306,34,21,35,202,27,23,07,323,35,25,25,149,41*75
$GPGSV,3,3,11,29,73,106,37,31,29,236,42,09,00,000,*44
$GPGSA,A,3,02,05,10,13,16,21,23,25,29,31,,,1.90,0.80,1.70*0B
$SDVLW,,N,0.5,N,1067.7,N,1062.8,N*7B
$GPGLL,6010.4131,N,02500.6242,E,100841,A,A*4E
$GPGSA,A,3,02,05,10,13,16,21,23,25,29,31,,,1.90,0.80,1.70*0B
$WIMWV,160.0,R,1.9,N,A*2C
$SDHDG,191.1,,,8.2,E*37
$SDHDG,191.4,,,8.2,E*32
$WIMWV,170.3,T,3.8,N,A*2B
$WIMWV,122.0,R,1.8,N,A*2B
$GPXTE,,,,,N,N*5E
$SDHDG,191.6,,,8.2,E*30
$GPZDA,100840,13,09,14,-03,00*65
$SDHDG,191.0,,,8.2,E*36
$SDHDG,192.1,,,8.2,E*34
$SDVHW,199.7,T,191.5,M,2.0,N,3.7,K*4E
$GPGSV,3,1,11,02,11,051,29,05,32,072,34,10,11,022,31,13,13,346,30*71
$WIMWD,10.7,T,2.4,M,3.8,N,2.0,M*63
$GPGSV,3,2,11,16,21,306,33,21,35,202,27,23,07,323,35,25,25,149,41*72
$GPRMB,,,,,,,,,,,,,,N*04
$SDDBT,44.6,f,13.6,M,7.4,F*07
$GPGGA,100840,6010.4136,N,02500.6251,E,1,10,0.80,-1,M,19.5,M,,*49
$WIMWV,205.6,T,0.8,N,A*2C
$SDHDG,191.4,,,8.2,E*32
$SDHDG,191.1,,,8.2,E*37
$WIMWV,205.6,T,0.8,N,A*2C
$WIMWV,344.0,R,1.3,N,A*22
$SDHDG,191.0,,,8.2,E*36
$SDHDG,191.3,,,8.2,E*35
$GPGSV,3,3,11,29,73,106,40,31,29,236,42,09,00,000,*44
$GPGGA,100842,6010.4125,N,02500.6233,E,1,10,0.80,-1,M,19.5,M,,*4D
$GPRMB,,,,,,,,,,,,,,N*04
$SDHDG,191.2,,,8.2,E*34
$GPGSV,3,1,11,02,11,051,29,05,32,072,34,10,11,022,32,13,13,346,29*7A
$SDVHW,199.9,T,191.7,M,2.0,N,3.7,K*42
$SDHDG,191.1,,,8.2,E*37
$WIMWV,344.0,R,1.3,N,A*22
$GPVTG,214.0,T,205.8,M,2.6,N,4.8,K,A*23
$SDHDG,192.1,,,8.2,E*34
$SDHDG,191.0,,,8.2,E*36
$SDHDG,191.9,,,8.2,E*3F
$SDMTW,,C*1A
$SDVLW,,N,0.5,N,1067.7,N,1062.8,N*7B
$GPGSV,3,2,11,16,21,306,34,21,35,202,30,23,07,323,35,25,25,149,41*73
$SDDPT,13.6,,*61
$SDHDG,191.0,,,8.2,E*36
$SDHDG,191.0,,,8.2,E*36
$GPRMC,100842,A,6010.4125,N,02500.6233,E,2.6,214.0,130914,8.2,E,A*15
$SDVHW,199.2,T,191.0,M,2.0,N,3.7,K*4E
$GPRMC,100841,A,6010.4131,N,02500.6242,E,2.5,215.0,130914,8.2,E,A*17
$SDDPT,13.6,,*61
$WIMWD,44.8,T,36.6,M,0.8,N,0.4,M*5D
$GPXTE,,,,,N,N*5E
$GPRMB,,,,,,,,,,,,,,N*04
$SDDBT,44.6,f,13.6,M,7.4,F*07
$SDHDG,191.6,,,8.2,E*30
$GPGLL,6010.4125,N,02500.6233,E,100842,A,A*4E
$WIMWD,45.5,T,37.3,M,0.8,N,0.4,M*55
$GPGSV,3,3,11,29,73,106,38,31,29,236,42,09,00,000,*4B
$GPZDA,100841,13,09,14,-03,00*64
$SDHDG,191.8,,,8.2,E*3E
$GPGSA,A,3,02,05,10,13,16,21,23,25,29,31,,,1.90,0.80,1.70*0B
$SDHDG,191.7,,,8.2,E*31
$SDDBT,44.6,f,13.6,M,7.4,F*07
$SDHDG,191.2,,,8.2,E*34
$GPVTG,215.0,T,206.8,M,2.5,N,4.6,K,A*2C
$GPZDA,100842,13,09,14,-03,00*67
$GPXTE,,,,,N,N*5E
$SDVLW,,N,0.5,N,1067.7,N,1062.8,N*7B
$SDMTW,,C*1A
$SDHDG,191.0,,,8.2,E*36
$SDHDG,192.8,,,8.2,E*3D
$SDHDG,192.3,,,8.2,E*36
$SDHDG,193.3,,,8.2,E*37
$SDHDG,193.4,,,8.2,E*30
$GPRMB,,,,,,,,,,,,,,N*04
$SDDBT,44.6,f,13.6,M,7.4,F*07
$GPGSA,A,3,02,05,10,13,16,21,23,25,29,31,,,1.90,0.80,1.70*0B
$SDHDG,193.0,,,8.2,E*34
$WIMWV,208.2,T,1.9,N,A*25
$SDHDG,193.4,,,8.2,E*30
$SDHDG,193.2,,,8.2,E*36
$SDVLW,,N,0.5,N,1067.7,N,1062.8,N*7B
$SDHDG,192.5,,,8.2,E*30
$GPGGA,100844,6010.4114,N,02500.6216,E,1,10,0.80,-2,M,19.5,M,,*4D
$SDMTW,,C*1A
$SDVHW,201.6,T,193.4,M,2.0,N,3.8,K*41
$GPGSA,A,3,02,05,10,13,16,21,23,25,29,31,,,1.90,0.80,1.70*0B
$SDVHW,201.1,T,192.8,M,2.0,N,3.8,K*4B
$GPRMC,100844,A,6010.4114,N,02500.6216,E,2.6,212.0,130914,8.2,E,A*10
$GPGLL,6010.4114,N,02500.6216,E,100844,A,A*4D
$SDDPT,13.6,,*61
$WIMWD,6.8,T,358.5,M,2.9,N,1.5,M*50
$GPVTG,212.0,T,203.8,M,2.6,N,4.8,K,A*23
$GPVTG,213.0,T,204.8,M,2.5,N,4.6,K,A*28
$SDMTW,,C*1A
$SDDPT,13.6,,*61
$WIMWD,49.3,T,41.0,M,1.9,N,1.0,M*58
$SDHDG,192.2,,,8.2,E*37
$WIMWV,132.0,R,1.0,N,A*22
$GPGSV,3,3,11,29,73,106,40,31,29,236,42,09,00,000,*44
$GPGLL,6010.4120,N,02500.6224,E,100843,A,A*4C
$GPGSV,3,1,11,02,11,051,29,05,32,072,35,10,11,022,33,13,13,346,31*73
$GPGSV,3,2,11,16,21,306,33,21,35,202,29,23,07,323,35,25,25,149,41*7C
$GPZDA,100844,13,09,14,-03,00*61
$SDHDG,192.7,,,8.2,E*32
$SDDBT,44.6,f,13.6,M,7.4,F*07
$WIMWV,165.1,T,2.9,N,A*2D
$SDHDG,193.0,,,8.2,E*34
$SDHDG,192.7,,,8.2,E*32
$GPXTE,,,,,N,N*5E
$GPRMB,,,,,,,,,,,,,,N*04
$GPGGA,100843,6010.4120,N,02500.6224,E,1,10,0.80,-1,M,19.5,M,,*4F
$SDHDG,193.1,,,8.2,E*35
$GPZDA,100843,13,09,14,-03,00*66
$GPXTE,,,,,N,N*5E
$SDVLW,,N,0.5,N,1067.7,N,1062.8,N*7B
$GPGSV,3,3,11,29,73,106,40,31,29,236,41,09,00,000,*47
$GPGSV,3,1,11,02,11,051,28,05,32,072,35,10,11,022,32,13,13,346,28*7B
$WIMWV,298.0,R,1.0,N,A*21
$SDHDG,192.9,,,8.2,E*3C
$GPRMC,100843,A,6010.4120,N,02500.6224,E,2.5,213.0,130914,8.2,E,A*13
$SDHDG,193.3,,,8.2,E*37
$SDHDG,193.0,,,8.2,E*34
$GPGSV,3,2,11,16,21,306,32,21,35,202,29,23,07,323,35,25,25,149,41*7D
$SDHDG,193.3,,,8.2,E*37
$GPRMB,,,,,,,,,,,,,,N*04
$SDDPT,13.6,,*61
$SDHDG,193.0,,,8.2,E*34
$GPVTG,214.0,T,205.8,M,2.9,N,5.4,K,A*21
$SDHDG,191.0,,,8.2,E*36
$GPGSV,3,2,11,16,21,306,33,21,35,202,30,23,07,323,34,25,25,149,41*75
$SDHDG,191.7,,,8.2,E*31
$SDHDG,192.2,,,8.2,E*37
$GPRMC,100845,A,6010.4108,N,02500.6208,E,2.7,212.0,130914,8.2,E,A*12
$SDDBT,44.6,f,13.6,M,7.4,F*07
$SDHDG,193.1,,,8.2,E*35
$SDHDG,192.7,,,8.2,E*32
$SDHDG,192.4,,,8.2,E*31
$GPGSV,3,1,11,02,11,051,27,05,32,072,35,10,11,022,33,13,13,346,22*7F
$WIMWV,188.6,T,2.9,N,A*29
$SDHDG,193.2,,,8.2,E*36
$SDDBT,44.6,f,13.6,M,7.4,F*07
$GPGGA,100846,6010.4102,N,02500.6198,E,1,10,0.80,-1,M,19.5,M,,*4E
$SDMTW,,C*1A
$SDMTW,,C*1A
$SDHDG,192.9,,,8.2,E*3C
$GPZDA,100845,13,09,14,-03,00*60
$SDVHW,200.9,T,192.7,M,2.1,N,4.0,K*43
$WIMWD,24.5,T,16.3,M,3.1,N,1.6,M*58
$SDVLW,,N,0.5,N,1067.7,N,1062.8,N*7B
$SDHDG,191.9,,,8.2,E*3F
$GPGSV,3,3,11,29,73,106,38,31,29,236,41,09,00,000,*48
$GPGGA,100845,6010.4108,N,02500.6208,E,1,10,0.80,-1,M,19.5,M,,*4D
$SDHDG,191.5,,,8.2,E*33
$GPVTG,212.0,T,203.8,M,2.7,N,5.0,K,A*2B
$GPGLL,6010.4108,N,02500.6208,E,100845,A,A*4E
$SDHDG,193.3,,,8.2,E*37
$GPRMB,,,,,,,,,,,,,,N*04
$SDHDG,190.8,,,8.2,E*3F
$GPGSV,3,2,11,16,21,306,34,21,35,202,30,23,07,323,35,25,25,149,41*73
$GPXTE,,,,,N,N*5E
$WIMWV,213.0,R,0.8,N,A*2B
$SDHDG,192.5,,,8.2,E*30
$GPGSV,3,3,11,29,73,106,37,31,29,236,42,09,00,000,*44
$WIMWV,200.0,R,0.9,N,A*28
$GPGSA,A,3,02,05,10,13,16,21,23,25,29,31,,,1.90,0.80,1.70*0B
$GPXTE,,,,,N,N*5E
$WIMWD,29.6,T,21.3,M,2.9,N,1.5,M*58
$GPGLL,6010.4102,N,02500.6198,E,100846,A,A*4D
$GPGSA,A,3,02,05,10,13,16,21,23,25,29,31,,,1.90,0.80,1.70*0B
$GPGSV,3,1,11,02,11,051,29,05,32,072,35,10,11,022,33,13,13,346,32*70
$SDHDG,192.8,,,8.2,E*3D
$GPRMC,100846,A,6010.4102,N,02500.6198,E,2.9,214.0,130914,8.2,E,A*19
$SDHDG,193.4,,,8.2,E*30
$SDHDG,191.3,,,8.2,E*35
$GPZDA,100846,13,09,14,-03,00*63
$WIMWV,185.6,T,3.1,N,A*2D
$SDVHW,198.9,T,190.6,M,2.2,N,4.2,K*43
$SDVLW,,N,0.5,N,1067.7,N,1062.8,N*7B
$SDDPT,13.6,,*61
$SDHDG,193.4,,,8.2,E*30
$GPGSV,3,3,11,29,73,106,41,31,29,236,39,09,00,000,*49
$WIMWD,22.8,T,14.5,M,3.2,N,1.7,M*55
$SDHDG,190.0,,,8.2,E*37
$GPRMC,100847,A,6010.4095,N,02500.6188,E,2.8,217.0,130914,8.2,E,A*14
$GPGSA,A,3,02,05,10,13,16,21,23,25,29,31,,,1.90,0.80,1.70*0B
$GPRMB,,,,,,,,,,,,,,N*04
$SDHDG,189.7,,,8.2,E*38
$SDMTW,,C*1A
$SDHDG,189.1,,,8.2,E*3E
$SDHDG,189.4,,,8.2,E*3B
$SDHDG,190.5,,,8.2,E*32
$SDHDG,189.1,,,8.2,E*3E
$GPGSV,3,2,11,16,21,306,35,21,35,202,32,23,07,323,34,25,25,149,40*70
$WIMWV,185.1,T,3.2,N,A*29
$SDHDG,189.0,,,8.2,E*3F
$SDHDG,190.6,,,8.2,E*31
$GPXTE,,,,,N,N*5E
$SDDBT,45.2,f,13.8,M,7.5,F*0D
$WIMWV,199.0,R,0.9,N,A*2B
$SDHDG,189.2,,,8.2,E*3D
$GPGLL,6010.4089,N,02500.6179,E,100848,A,A*4E
$SDHDG,189.5,,,8.2,E*3A
$GPGLL,6010.4095,N,02500.6188,E,100847,A,A*42
$GPVTG,215.0,T,206.8,M,2.8,N,5.2,K,A*24
$GPGSV,3,3,11,29,73,106,38,31,29,236,41,09,00,000,*48
$GPVTG,217.0,T,208.8,M,2.8,N,5.2,K,A*28
$GPGGA,100848,6010.4089,N,02500.6179,E,1,10,0.80,-2,M,19.5,M,,*4E
$GPGSA,A,3,02,05,10,13,16,21,23,25,29,31,,,1.90,0.80,1.70*0B
$SDDPT,13.8,,*6F
$GPGSV,3,1,11,02,11,051,29,05,32,072,35,10,11,022,33,13,13,346,31*73
$SDHDG,189.8,,,8.2,E*37
$SDHDG,189.3,,,8.2,E*3C
$SDHDG,189.6,,,8.2,E*39
$SDVHW,197.6,T,189.3,M,2.3,N,4.4,K*49
$SDHDG,190.3,,,8.2,E*34
$SDHDG,190.1,,,8.2,E*36
$GPGSV,3,2,11,16,21,306,32,21,35,202,31,23,07,323,33,25,25,149,41*72
$SDHDG,189.2,,,8.2,E*3D
$GPRMC,100848,A,6010.4089,N,02500.6179,E,2.8,215.0,130914,8.2,E,A*1A
$GPZDA,100847,13,09,14,-03,00*62
$SDHDG,189.1,,,8.2,E*3E
$SDHDG,189.3,,,8.2,E*3C
$GPGSV,3,1,11,02,11,051,26,05,32,072,35,10,11,022,33,13,13,346,24*78
$SDVLW,,N,0.5,N,1067.7,N,1062.8,N*7B
$GPGGA,100847,6010.4095,N,02500.6188,E,1,10,0.80,-1,M,19.5,M,,*41
$SDMTW,,C*1A
$SDHDG,188.9,,,8.2,E*37
$SDMTW,,C*1A
$GPGSV,3,1,11,02,11,051,34,05,32,072,35,10,11,022,33,13,13,346,33*7D
$SDDBT,45.2,f,13.8,M,7.5,F*0D
$GPZDA,100849,13,09,14,-03,00*6C
$SDHDG,188.6,,,8.2,E*38
$SDHDG,188.7,,,8.2,E*39
$GPVTG,210.0,T,201.8,M,2.9,N,5.4,K,A*21
$SDVHW,196.6,T,188.4,M,2.5,N,4.6,K*4A
$SDDBT,45.2,f,13.8,M,7.5,F*0D
$WIMWD,14.0,T,5.8,M,3.2,N,1.6,M*64
$WIMWD,30.0,T,21.8,M,3.0,N,1.5,M*55
$SDHDG,188.4,,,8.2,E*3A
$SDVLW,,N,0.5,N,1067.7,N,1062.8,N*7B
$WIMWV,240.0,R,0.8,N,A*2D
$WIMWV,167.0,R,0.8,N,A*2B
$SDHDG,188.9,,,8.2,E*37
$WIMWV,176.8,T,3.2,N,A*2C
$SDHDG,189.0,,,8.2,E*3F
$GPGSV,3,3,11,29,73,106,38,31,29,236,38,09,00,000,*46
$SDHDG,188.4,,,8.2,E*3A
$SDVHW,197.2,T,188.9,M,2.3,N,4.4,K*46
$SDDPT,13.8,,*6F
$GPGSA,A,3,02,05,10,13,16,21,23,25,29,31,,,1.90,0.80,1.70*0B
$GPGGA,100849,6010.4082,N,02500.6170,E,1,10,0.80,-2,M,19.5,M,,*4D
$SDDPT,13.8,,*6F
$GPRMC,100849,A,6010.4082,N,02500.6170,E,2.9,210.0,130914,8.2,E,A*1D
$SDHDG,188.7,,,8.2,E*39
$SDHDG,188.9,,,8.2,E*37
$SDHDG,188.4,,,8.2,E*3A
$GPGLL,6010.4082,N,02500.6170,E,100849,A,A*4D
$GPXTE,,,,,N,N*5E
$WIMWV,193.4,T,3.0,N,A*29
$GPXTE,,,,,N,N*5E
$SDHDG,188.3,,,8.2,E*3D
$SDHDG,188.8,,,8.2,E*36
$SDHDG,188.5,,,8.2,E*3B
$GPRMB,,,,,,,,,,,,,,N*04
$GPRMB,,,,,,,,,,,,,,N*04
$SDHDG,188.6,,,8.2,E*38
$GPZDA,100848,13,09,14,-03,00*6D
$SDVLW,,N,0.5,N,1067.7,N,1062.8,N*7B
$GPGSV,3,2,11,16,21,306,36,21,35,202,34,23,07,323,35,25,25,149,39*7A
$SDDBT,45.2,f,13.8,M,7.5,F*0D
$GPGSV,3,3,11,29,73,106,40,31,29,236,38,09,00,000,*49
$SDHDG,188.9,,,8.2,E*37
$SDVLW,,N,0.5,N,1067.7,N,1062.8,N*7B
$SDDPT,13.8,,*6F
$GPGSV,3,1,11,02,11,051,34,05,32,072,34,10,11,022,32,13,13,346,35*7B
$GPRMB,,,,,,,,,,,,,,N*04
$SDHDG,189.2,,,8.2,E*3D
$GPGSV,3,2,11,16,21,306,35,21,35,202,35,23,07,323,35,25,25,149,39*78
$GPVTG,211.0,T,202.8,M,2.9,N,5.4,K,A*23
$WIMWV,240.0,R,0.8,N,A*2D
$WIMWV,206.2,T,2.2,N,A*23
$GPRMC,100850,A,6010.4075,N,02500.6161,E,2.9,211.0,130914,8.2,E,A*1C
$GPZDA,100851,13,09,14,-03,00*65
$SDHDG,188.5,,,8.2,E*3B
$WIMWD,44.2,T,35.9,M,2.2,N,1.1,M*57
$SDVHW,196.8,T,188.5,M,2.5,N,4.6,K*45
$SDDBT,45.2,f,13.8,M,7.5,F*0D
$GPRMC,100851,A,6010.4069,N,02500.6153,E,2.8,211.0,130914,8.2,E,A*10
$GPXTE,,,,,N,N*5E
$SDHDG,188.6,,,8.2,E*38
$WIMWD,30.2,T,21.9,M,3.0,N,1.5,M*56
$GPXTE,,,,,N,N*5E
$GPGGA,100851,6010.4069,N,02500.6153,E,1,10,0.80,-2,M,19.5,M,,*40
$GPGLL,6010.4075,N,02500.6161,E,100850,A,A*4D
$SDHDG,188.4,,,8.2,E*3A
$SDHDG,189.1,,,8.2,E*3E
$SDMTW,,C*1A
$SDHDG,189.3,,,8.2,E*3C
$GPVTG,211.0,T,202.8,M,2.8,N,5.2,K,A*24
$GPGSA,A,3,02,05,10,13,16,21,23,25,29,31,,,1.90,0.80,1.70*0B
$SDDPT,13.8,,*6F
$SDHDG,188.3,,,8.2,E*3D
$GPRMB,,,,,,,,,,,,,,N*04
$WIMWV,193.4,T,3.0,N,A*29
$SDHDG,188.3,,,8.2,E*3D
$SDHDG,188.3,,,8.2,E*3D
$SDHDG,189.0,,,8.2,E*3F
$GPGSV,3,2,11,16,21,306,34,21,35,202,34,23,07,323,34,25,25,149,39*79
$SDHDG,189.5,,,8.2,E*3A
$GPGGA,100850,6010.4075,N,02500.6161,E,1,10,0.80,-2,M,19.5,M,,*4D
$SDHDG,189.6,,,8.2,E*39
$GPGSV,3,3,11,29,73,106,41,31,29,236,38,09,00,000,*48
$WIMWV,298.0,R,1.1,N,A*20
$SDHDG,188.5,,,8.2,E*3B
$GPGSA,A,3,02,05,10,13,16,21,23,25,29,31,,,1.90,0.80,1.70*0B
$SDHDG,188.3,,,8.2,E*3D
$SDVHW,197.9,T,189.7,M,2.5,N,4.6,K*46
$GPGSV,3,1,11,02,11,051,34,05,32,072,34,10,11,022,32,13,13,346,33*7D
$GPZDA,100850,13,09,14,-03,00*64
$GPGLL,6010.4069,N,02500.6153,E,100851,A,A*40
$SDVLW,,N,0.5,N,1067.7,N,1062.8,N*7B
$SDHDG,188.8,,,8.2,E*36
$SDMTW,,C*1A
$SDHDG,188.3,,,8.2,E*3D
$GPGSV,3,3,11,29,73,106,41,31,29,236,39,09,00,000,*49
$GPGSV,3,1,11,02,11,051,34,05,32,072,34,10,11,022,33,13,13,346,34*7B
$SDHDG,190.1,,,8.2,E*36
$GPGLL,6010.4055,N,02500.6136,E,100853,A,A*4E
$GPGGA,100852,6010.4062,N,02500.6145,E,1,10,0.80,-2,M,19.5,M,,*4F
$GPRMC,100852,A,6010.4062,N,02500.6145,E,2.8,206.0,130914,8.2,E,A*19
$SDHDG,189.8,,,8.2,E*37
$SDHDG,189.8,,,8.2,E*37
$GPRMB,,,,,,,,,,,,,,N*04
$GPGLL,6010.4062,N,02500.6145,E,100852,A,A*4F
$GPRMC,100853,A,6010.4055,N,02500.6136,E,2.9,209.0,130914,8.2,E,A*16
$SDHDG,189.7,,,8.2,E*38
$SDHDG,189.8,,,8.2,E*37
$SDDPT,13.8,,*6F
$SDHDG,189.9,,,8.2,E*36
$GPGSV,3,2,11,16,21,306,35,21,35,202,35,23,07,323,35,25,25,149,39*78
$SDHDG,189.8,,,8.2,E*37
$GPVTG,209.0,T,200.8,M,2.9,N,5.4,K,A*28
$SDHDG,190.2,,,8.2,E*35
$SDHDG,189.8,,,8.2,E*37
$SDHDG,189.7,,,8.2,E*38
$SDHDG,189.7,,,8.2,E*38
$SDVHW,197.9,T,189.7,M,2.6,N,4.8,K*4B
$SDHDG,189.7,,,8.2,E*38
$SDVLW,,N,0.5,N,1067.7,N,1062.8,N*7B
$GPGSV,3,3,11,29,73,106,41,31,29,236,39,09,00,000,*49
$GPGGA,100853,6010.4055,N,02500.6136,E,1,10,0.80,-2,M,19.5,M,,*4E
$SDHDG,189.7,,,8.2,E*38
$GPVTG,206.0,T,197.8,M,2.8,N,5.2,K,A*2D
$SDHDG,189.8,,,8.2,E*37
$GPGSA,A,3,02,05,10,13,16,21,23,25,29,31,,,1.90,0.80,1.70*0B
$GPGSV,3,2,11,16,21,306,35,21,35,202,36,23,07,323,35,25,25,149,38*7A
$WIMWV,209.4,T,2.5,N,A*2D
$WIMWD,47.3,T,39.1,M,2.5,N,1.3,M*54
$SDMTW,,C*1A
$SDHDG,189.8,,,8.2,E*37
$SDDBT,45.2,f,13.8,M,7.5,F*0D
$SDHDG,189.9,,,8.2,E*36
$GPZDA,100853,13,09,14,-03,00*67
$GPGSA,A,3,02,05,10,13,16,21,23,25,29,31,,,1.90,0.80,1.70*0B
$WIMWV,288.0,R,1.3,N,A*23
$SDHDG,189.7,,,8.2,E*38
$GPZDA,100852,13,09,14,-03,00*66
$SDHDG,189.7,,,8.2,E*38
$GPXTE,,,,,N,N*5E
$SDHDG,189.7,,,8.2,E*38
$GPGSV,3,1,11,02,11,051,34,05,32,072,34,10,11,022,32,13,13,346,33*7D
$GPZDA,100854,13,09,14,-03,00*60
$GPGSV,3,3,11,29,73,106,39,31,29,236,40,09,00,000,*48
$GPRMB,,,,,,,,,,,,,,N*04
$GPGLL,6010.4048,N,02500.6128,E,100854,A,A*4A
$SDHDG,190.6,,,8.2,E*31
$GPGSV,3,1,11,02,11,051,33,05,32,072,34,10,11,022,33,13,13,346,32*7A
$GPRMB,,,,,,,,,,,,,,N*04
$GPGGA,100854,6010.4048,N,02500.6128,E,1,10,0.80,-2,M,19.5,M,,*4A
$SDHDG,191.8,,,8.2,E*3E
$GPVTG,210.0,T,201.8,M,2.9,N,5.4,K,A*21
$GPGSV,3,2,11,16,21,306,32,21,35,202,37,23,07,323,36,25,25,149,39*7E
$SDHDG,191.9,,,8.2,E*3F
$SDHDG,191.8,,,8.2,E*3E
$GPGGA,100855,6010.4041,N,02500.6121,E,1,10,0.80,-2,M,19.5,M,,*4B
$GPXTE,,,,,N,N*5E
$GPRMC,100854,A,6010.4048,N,02500.6128,E,2.9,210.0,130914,8.2,E,A*1A
$WIMWV,240.0,R,1.9,N,A*2D
$SDDPT,13.8,,*6F
$SDHDG,192.0,,,8.2,E*35
$SDHDG,190.4,,,8.2,E*33
$SDHDG,191.9,,,8.2,E*3F
$SDHDG,191.9,,,8.2,E*3F
$SDDBT,45.2,f,13.8,M,7.5,F*0D
$GPGSA,A,3,02,05,10,13,16,21,23,25,29,31,,,1.90,0.80,1.70*0B
$SDMTW,,C*1A
$SDDBT,45.2,f,13.8,M,7.5,F*0D
$SDVHW,200.2,T,191.9,M,2.6,N,4.8,K*4A
$SDMTW,,C*1A
$WIMWV,204.9,T,3.9,N,A*20
$WIMWD,43.5,T,35.3,M,3.9,N,2.0,M*55
$GPXTE,,,,,N,N*5E
$SDHDG,191.0,,,8.2,E*36
$SDHDG,191.5,,,8.2,E*33
$SDHDG,191.4,,,8.2,E*32
$SDVLW,,N,0.5,N,1067.7,N,1062.8,N*7B
$SDHDG,190.8,,,8.2,E*3F
$SDHDG,192.0,,,8.2,E*35
$WIMWV,204.9,T,3.9,N,A*20
$SDHDG,191.6,,,8.2,E*30
$SDHDG,191.1,,,8.2,E*37
$SDHDG,191.7,,,8.2,E*31
$SDDPT,13.8,,*6F
$WIMWD,45.1,T,36.9,M,3.9,N,2.0,M*5E
$SDHDG,191.3,,,8.2,E*35
$SDHDG,191.7,,,8.2,E*31
$SDVLW,,N,0.5,N,1067.7,N,1062.8,N*7B
$SDVHW,198.6,T,190.4,M,2.6,N,4.8,K*40
$WIMWV,240.0,R,1.9,N,A*2D
$SDHDG,190.9,,,8.2,E*3E
$GPGSV,3,2,11,16,21,306,34,21,35,202,37,23,07,323,36,25,25,149,39*78
$SDHDG,191.0,,,8.2,E*36
$GPGSV,3,3,11,29,73,106,39,31,29,236,40,09,00,000,*48
$SDMTW,,C*1A
$SDVHW,199.6,T,191.4,M,2.7,N,5.0,K*48
$GPRMC,100856,A,6010.4034,N,02500.6112,E,3.0,212.0,130914,8.2,E,A*10
$GPXTE,,,,,N,N*5E
$WIMWV,245.0,R,2.8,N,A*2A
$SDHDG,190.8,,,8.2,E*3F
$SDHDG,190.9,,,8.2,E*3E
$GPGSV,3,2,11,16,21,306,35,21,35,202,37,23,07,323,36,25,24,149,38*79
$WIMWD,51.0,T,42.8,M,4.1,N,2.1,M*56
$GPGLL,6010.4034,N,02500.6112,E,100856,A,A*4A
$SDDPT,13.8,,*6F
$GPGSA,A,3,02,05,10,13,16,21,23,25,29,31,,,1.90,0.80,1.70*0B
